City_ID,City,Lat,Lng,Max Temp,Humidity,Cloudiness,Wind Speed,Country,Date
0,kermit,31.8576,-103.0927,94.05,19,21,9.33,US,1690167112
1,morondava,-20.2833,44.2833,66.0,74,0,6.53,MG,1690167112
2,thompson,55.7435,-97.8558,66.36,48,20,2.3,CA,1690167113
3,bilibino,68.0546,166.4372,61.39,66,100,2.57,RU,1690167113
4,wailua homesteads,22.0669,-159.378,84.63,86,75,16.11,US,1690167114
5,port mathurin,-19.6833,63.4167,73.81,73,35,16.53,MU,1690167114
6,port-aux-francais,-49.35,70.2167,42.48,95,100,38.23,TF,1690167115
7,price,39.5994,-110.8107,90.66,17,0,13.8,US,1690167115
8,adamstown,-25.066,-130.1015,69.37,69,100,17.58,PN,1690167115
9,hawaiian paradise park,19.5933,-154.9731,81.91,84,100,9.22,US,1690167115
10,port elizabeth,-33.918,25.5701,53.89,66,20,17.27,ZA,1690167115
11,vilyuchinsk,52.9306,158.4028,77.27,61,55,15.35,RU,1690167115
12,ushuaia,-54.8,-68.3,28.06,80,20,9.22,AR,1690167116
13,inhambane,-23.865,35.3833,62.69,86,3,10.2,MZ,1690167116
14,invercargill,-46.4,168.35,50.56,83,85,0.74,NZ,1690167116
15,albany,42.6001,-73.9662,72.01,80,21,3.53,US,1690167116
16,east london,-33.0153,27.9116,56.7,66,68,17.13,ZA,1690167116
17,petropavlovsk-kamchatsky,53.0452,158.6483,75.79,41,20,15.66,RU,1690167117
18,ust-tsilma,65.441,52.1498,60.03,80,27,6.17,RU,1690167117
19,santa cruz,-17.8,-63.1667,71.06,83,20,4.61,BO,1690167117
20,iranshahr,27.2025,60.6848,91.74,49,100,6.91,IR,1690167117
21,blackmans bay,-43.0167,147.3167,57.72,60,100,7.99,AU,1690167117
22,waitangi,-43.9535,-176.5597,53.82,96,99,5.99,NZ,1690167117
23,yellowknife,62.456,-114.3525,70.32,43,100,3.44,CA,1690167118
24,hamilton,39.1834,-84.5333,72.45,81,0,8.05,US,1690167053
25,malango,-2.9627,119.9001,78.82,64,98,3.65,ID,1690167118
26,luau,-10.7073,22.2247,59.23,52,0,3.71,AO,1690167118
27,mili,6.0815,171.735,81.91,81,64,14.61,MH,1690167118
28,kerikeri,-35.2268,173.9474,64.9,73,22,5.01,NZ,1690166957
29,ribeira grande,38.5167,-28.7,71.78,85,16,7.0,PT,1690167119
30,grytviken,-54.2811,-36.5092,20.79,77,37,7.23,GS,1690167119
31,itamaraca,-7.7478,-34.8256,75.25,84,31,9.37,BR,1690167119
32,strezhevoy,60.7333,77.5889,75.15,48,44,2.48,RU,1690167119
33,campo formoso,-10.5075,-40.3214,60.35,88,5,5.91,BR,1690167120
34,tazovsky,67.4667,78.7,63.43,76,1,1.97,RU,1690167120
35,fort bragg,35.139,-79.006,76.19,97,20,4.61,US,1690167120
36,isafjordur,66.0755,-23.124,51.46,87,99,3.36,IS,1690167120
37,aasiaat,68.7098,-52.8699,36.95,99,100,6.11,GL,1690167120
38,cuito,-12.3833,16.9333,53.22,46,39,2.01,AO,1690167120
39,fale old settlement,-9.3852,-171.2468,83.25,77,11,13.71,TK,1690167121
40,kharagpur,22.3333,87.3333,86.92,70,72,9.28,IN,1690167121
41,puerto ayora,-0.7393,-90.3518,76.62,84,23,7.49,EC,1690167121
42,edinburgh of the seven seas,-37.0676,-12.3116,56.25,77,66,25.75,SH,1690167121
43,ntui,4.45,11.6333,69.73,99,100,4.12,CM,1690167121
44,ancud,-41.8697,-73.8203,39.61,84,100,7.0,CL,1690167122
45,georgetown,5.4112,100.3354,87.73,78,20,5.75,MY,1690167114
46,kapuskasing,49.4169,-82.4331,60.89,94,100,10.36,CA,1690166850
47,mount pearl,47.5166,-52.7813,70.14,94,20,12.66,CA,1690166845
48,avarua,-21.2078,-159.775,78.85,78,20,16.11,CK,1690167122
49,masjed soleyman,31.9364,49.3039,96.4,11,2,3.09,IR,1690167122
50,williamson,30.6502,-97.6003,93.61,42,0,6.91,US,1690167124
51,sao vicente,-23.9631,-46.3919,75.38,26,5,4.03,BR,1690167124
52,saguenay,48.4168,-71.0657,67.08,91,20,4.61,CA,1690167124
53,mananjary,-21.2167,48.3333,64.44,92,10,3.6,MG,1690167124
54,jamestown,42.097,-79.2353,67.59,88,0,0.0,US,1690166996
55,siwa oasis,29.2041,25.5195,85.62,43,0,10.94,EG,1690167125
56,qutqashen,40.9814,47.8458,62.8,42,0,2.98,AZ,1690167126
57,chonchi,-42.6128,-73.8092,38.12,91,100,3.22,CL,1690166895
58,margaret river,-33.95,115.0667,62.37,60,22,19.39,AU,1690167129
59,punta arenas,-53.15,-70.9167,28.58,84,9,5.39,CL,1690167130
60,alice springs,-23.7,133.8833,56.75,44,2,19.57,AU,1690167130
61,san antonio de pale,-1.4014,5.6325,72.84,81,100,11.7,GQ,1690167130
62,constantia,44.1833,28.65,63.7,70,0,6.98,RO,1690167131
63,uturoa,-16.7333,-151.4333,78.93,76,60,9.78,PF,1690167131
64,berbera,10.4396,45.0143,90.27,44,100,26.04,SO,1690167132
65,sitka,57.0531,-135.33,58.89,82,75,4.61,US,1690166850
66,nehe,48.4833,124.8333,62.78,96,100,15.77,CN,1690167133
67,arraial do cabo,-22.9661,-42.0278,69.66,88,0,8.05,BR,1690167133
68,i-n-salah,27.1935,2.4607,93.85,9,0,9.98,DZ,1690167133
69,tiksi,71.6872,128.8694,49.28,63,79,4.74,RU,1690167133
70,hithadhoo,-0.6,73.0833,83.08,76,39,10.89,MV,1690167134
71,la ronge,55.1001,-105.2842,71.82,46,75,5.75,CA,1690167134
72,puerto natales,-51.7236,-72.4875,23.32,93,68,3.33,CL,1690167134
73,san luis de la loma,17.2706,-100.8939,81.59,78,37,3.2,MX,1690167134
74,diu,20.7141,70.9822,81.1,87,99,18.19,IN,1690167134
75,geraldton,-28.7667,114.6,66.61,32,0,26.46,AU,1690167135
76,arvayheer,46.2639,102.775,70.72,39,3,5.66,MN,1690167135
77,iskateley,67.6803,53.1512,60.75,84,100,5.17,RU,1690167135
78,poniatowa,51.1798,22.1309,69.71,73,100,9.28,PL,1690167135
79,port lincoln,-34.7333,135.8667,56.59,70,100,4.56,AU,1690167136
80,linxia chengguanzhen,35.6003,103.2064,74.97,51,0,2.39,CN,1690167136
81,goksun,38.021,36.4973,62.26,48,0,8.68,TR,1690167136
82,howrah,22.5892,88.3103,87.8,79,40,6.91,IN,1690167136
83,hermanus,-34.4187,19.2345,51.87,65,69,6.64,ZA,1690167136
84,wagar,16.1525,36.2032,85.44,57,45,15.95,SD,1690167136
85,napier,-39.4833,176.9167,56.28,81,100,5.99,NZ,1690167137
86,pathein,16.7833,94.7333,84.74,73,11,3.53,MM,1690167137
87,utrik,11.2278,169.8474,83.73,76,90,17.63,MH,1690167137
88,kingston,17.997,-76.7936,85.15,72,20,14.97,JM,1690166950
89,ar rutbah,33.0381,40.2848,81.37,33,0,10.07,IQ,1690167137
90,kargasok,59.0556,80.8572,71.6,60,100,2.44,RU,1690167138
91,peniche,39.3558,-9.3811,68.07,95,38,9.08,PT,1690167138
92,mhangura,-16.8939,30.1683,51.51,82,0,1.81,ZW,1690167138
93,anadyr,64.75,177.4833,55.9,87,100,15.66,RU,1690167138
94,bondoukou,8.0333,-2.8,70.07,99,99,3.85,CI,1690167138
95,terenozek,45.05,64.9833,91.06,22,0,8.1,KZ,1690167139
96,iqaluit,63.7506,-68.5145,42.53,86,75,10.36,CA,1690167139
97,mogadishu,2.0371,45.3438,76.6,83,70,15.66,SO,1690167139
98,ilulissat,69.2167,-51.1,46.42,93,100,3.44,GL,1690167139
99,zouerate,22.7187,-12.4521,81.45,35,90,12.15,MR,1690167139
100,college,64.8569,-147.8028,87.75,44,20,3.44,US,1690167139
101,bethel,41.3712,-73.414,76.66,76,0,0.0,US,1690167140
102,east end,34.5507,-92.341,82.29,91,42,6.42,US,1690167140
103,hirtshals,57.5881,9.9592,58.95,97,100,15.86,DK,1690167140
104,vernon,50.2581,-119.2691,91.76,18,10,1.14,CA,1690167140
105,delta del tigre,-34.7633,-56.3853,51.91,77,100,14.25,UY,1690167140
106,fortuna,40.5982,-124.1573,63.36,86,0,13.8,US,1690167141
107,olonkinbyen,70.9221,-8.7187,40.17,93,100,12.48,SJ,1690167141
108,longyearbyen,78.2186,15.6401,48.04,81,40,5.75,SJ,1690167141
109,marabba,12.35,32.1833,83.07,53,99,8.23,SD,1690167141
110,kattivakkam,13.2167,80.3167,83.07,80,100,11.48,IN,1690167141
111,nyurba,63.2842,118.3319,85.73,41,11,7.25,RU,1690167142
112,suva,-18.1416,178.4415,76.48,73,75,3.44,FJ,1690167142
113,omurtag,43.1,26.4167,60.85,83,0,2.77,BG,1690167142
114,papatowai,-46.5619,169.4708,49.33,87,93,2.17,NZ,1690167142
115,smolenskoye,52.3044,85.0781,72.1,56,100,2.91,RU,1690167142
116,namibe,-15.1961,12.1522,63.72,69,71,8.9,AO,1690167142
117,fayroz koh,34.5195,65.2509,66.4,32,25,2.44,AF,1690167143
118,hun,29.1268,15.9477,82.83,25,0,3.98,LY,1690167143
119,aripuana,-9.1667,-60.6333,71.08,45,5,1.23,BR,1690167143
120,lebu,-37.6167,-73.65,47.05,86,55,6.17,CL,1690167143
121,cristalina,-16.7686,-47.6136,62.76,52,54,4.92,BR,1690167144
122,whitehorse,60.7161,-135.0538,57.97,94,100,11.5,CA,1690167143
123,hammerfest,70.6634,23.6821,48.65,76,0,9.22,NO,1690166852
124,port alfred,-33.5906,26.891,51.19,80,17,8.01,ZA,1690166947
125,stanley,54.868,-1.6985,50.9,92,20,5.75,GB,1690167144
126,amungan,15.3652,119.9582,84.36,75,72,4.81,PH,1690167144
127,treuen,50.55,12.3,64.56,76,94,8.57,DE,1690167145
128,nar'yan-mar,67.6713,53.087,60.91,84,100,5.21,RU,1690167145
129,atafu village,-8.5421,-172.5159,84.07,76,13,14.72,TK,1690167145
130,ouadda,8.0777,22.4007,67.77,95,10,1.9,CF,1690167145
131,bayji,34.9311,43.487,90.82,18,0,11.59,IQ,1690167145
132,rongelap,11.1635,166.8941,84.06,70,48,13.51,MH,1690167146
133,nacala,-14.5428,40.6728,63.64,94,3,6.87,MZ,1690167146
134,glace bay,46.1969,-59.957,71.58,97,100,0.0,CA,1690166997
135,pisco,-13.7,-76.2167,69.85,68,100,5.75,PE,1690167146
136,dudinka,69.4058,86.1778,63.63,64,100,8.57,RU,1690167146
137,dumas,35.8656,-101.9732,83.53,47,0,6.91,US,1690167147
138,lins,-21.6786,-49.7425,64.65,54,3,5.86,BR,1690167022
139,greymouth,-42.4667,171.2,57.34,68,35,5.73,NZ,1690167147
140,woolgoolga,-30.1106,153.2007,66.07,59,39,17.38,AU,1690167147
141,ponta delgada,37.7333,-25.6667,70.52,83,20,6.91,PT,1690167147
142,senillosa,-39.0,-68.4167,37.18,78,100,16.62,AR,1690167148
143,waynesville,35.4887,-82.9887,66.65,91,60,1.99,US,1690167148
144,swan hill,-35.3378,143.5544,58.8,51,0,9.35,AU,1690166877
145,serignan,43.2787,3.2771,77.13,86,100,8.05,FR,1690167148
146,guasdualito,7.2424,-70.7324,75.16,100,20,0.0,VE,1690167148
147,antsiranana,-12.2787,49.2917,68.54,79,10,7.67,MG,1690167148
148,hirara,24.8,125.2833,89.87,70,40,13.8,JP,1690167149
149,ust-nera,64.5667,143.2,66.65,46,98,4.29,RU,1690167149
150,al aaroui,35.0118,-3.0045,79.05,83,0,2.3,MA,1690167149
151,uribia,11.7139,-72.266,81.61,72,100,13.67,CO,1690167149
152,bunia,1.5667,30.25,68.09,68,77,1.32,CD,1690167150
153,san patricio,28.017,-97.5169,87.66,62,100,10.04,US,1690167150
154,kirakira,-10.4544,161.9205,78.21,90,100,6.87,SB,1690167150
155,massakory,12.996,15.7293,78.82,73,48,6.58,TD,1690167150
156,acarau,-2.8856,-40.12,77.27,82,8,11.77,BR,1690167150
157,huinan,42.6225,126.2614,78.69,71,37,8.55,CN,1690167151
158,puerto baquerizo moreno,-0.9,-89.6,76.53,83,81,11.01,EC,1690167009
159,talnakh,69.4865,88.3972,63.21,71,99,1.74,RU,1690167151
160,timmins,48.4669,-81.3331,60.62,94,75,3.44,CA,1690166893
161,butterworth,5.3991,100.3638,87.84,78,20,5.75,MY,1690167151
162,mvomero,-6.25,38.6667,67.87,94,76,3.71,TZ,1690167152
163,tangalle,6.024,80.7911,82.56,74,57,13.49,LK,1690167152
164,mount isa,-20.7333,139.5,62.37,27,0,18.41,AU,1690167152
165,krasnystaw,50.9846,23.1742,70.0,64,100,8.5,PL,1690167152
166,saipan,15.1355,145.701,85.64,100,100,17.27,MP,1690167152
167,murashi,59.3999,48.9615,59.83,79,98,5.23,RU,1690167153
168,west island,-12.1568,96.8225,78.78,78,100,16.11,CC,1690167153
169,ta`u,-14.2336,-169.5144,79.72,72,6,13.27,AS,1690167153
170,northam,51.0333,-4.2167,61.66,96,98,4.63,GB,1690167153
171,remire-montjoly,4.9167,-52.2667,77.04,94,0,0.0,GF,1690167153
172,taroa,8.7058,171.2275,82.49,79,58,19.86,MH,1690167153
173,pointe-noire,-4.7761,11.8635,69.87,94,75,3.44,CG,1690167154
174,kruisfontein,-34.0033,24.7314,48.88,83,71,11.88,ZA,1690167154
175,portland,45.5234,-122.6762,84.79,44,20,11.5,US,1690166974
176,palu,-0.8917,119.8707,89.6,59,33,2.46,ID,1690167154
177,anapa,44.8908,37.3239,70.14,82,20,8.95,RU,1690167154
178,saint-francois,46.4154,3.9054,63.84,94,0,2.3,FR,1690167155
179,shanwei,22.782,115.3475,85.8,72,93,5.1,CN,1690167155
180,kaa-khem,51.6833,94.7333,66.81,55,93,4.03,RU,1690167155
181,saint-leu,-21.15,55.2833,70.63,89,5,4.81,RE,1690167155
182,pampa,35.5362,-100.9599,94.15,35,1,12.48,US,1690167155
183,enewetak,11.3474,162.3373,83.68,74,68,18.1,MH,1690167156
184,roma,43.2128,-75.4557,68.72,81,0,3.44,US,1690167156
185,massawa,15.6097,39.45,93.06,47,87,4.83,ER,1690167156
186,kodiak,57.79,-152.4072,63.91,63,0,8.05,US,1690166990
187,dhidhdhoo,6.8833,73.1,83.07,79,99,14.67,MV,1690167156
188,totness,5.8833,-56.3167,78.89,84,42,5.1,SR,1690167157
189,lamar,33.6668,-95.5836,79.65,80,0,8.05,US,1690167157
190,tazacorte,28.629,-17.9293,72.57,78,0,17.27,ES,1690167157
191,lazaro cardenas,17.9583,-102.2,83.34,76,100,2.37,MX,1690167157
192,afua,-0.1567,-50.3867,75.85,88,1,4.0,BR,1690167157
193,kuliyapitiya,7.4688,80.0401,80.28,80,94,8.14,LK,1690167157
194,riachao do jacuipe,-11.8069,-39.3856,64.71,95,2,3.91,BR,1690167158
195,alta,69.9689,23.2717,47.46,75,100,12.66,NO,1690167158
196,antonio enes,-16.2325,39.9086,68.32,83,1,7.18,MZ,1690167158
197,kristiansund,63.1115,7.732,54.25,87,100,9.22,NO,1690166891
198,kuusamo,65.9667,29.1833,48.11,96,100,4.68,FI,1690167158
199,papao,-17.75,-149.55,80.28,72,86,4.34,PF,1690166871
200,lihue,21.9789,-159.3672,85.24,82,75,16.11,US,1690167159
201,igarka,67.4667,86.5833,69.31,70,90,2.37,RU,1690167159
202,cidreira,-30.1811,-50.2056,61.02,93,29,5.91,BR,1690167159
203,savanna-la-mar,18.219,-78.1332,85.95,90,0,2.55,JM,1690167159
204,monywa,22.1167,95.1333,89.28,62,84,7.23,MM,1690167160
205,eydhafushi,5.1033,73.0708,83.19,77,76,9.71,MV,1690167160
206,ndele,8.4109,20.6473,68.94,97,58,1.03,CF,1690167160
207,meadow lake,34.8014,-106.5436,90.14,27,54,6.38,US,1690167160
208,pineville,31.3224,-92.4343,82.29,65,0,3.44,US,1690166893
209,araguaina,-7.1911,-48.2072,72.9,44,7,4.41,BR,1690167160
210,happy valley-goose bay,53.3168,-60.3315,66.51,88,75,5.75,CA,1690167161
211,seeb,23.6703,58.1891,87.89,74,0,5.75,OM,1690167161
212,clarion,41.2148,-79.3853,70.77,75,30,3.85,US,1690167142
213,macapa,0.0389,-51.0664,80.58,94,20,5.75,BR,1690167161
214,gadzhiyevo,69.2551,33.3362,48.76,95,100,13.87,RU,1690167161
215,floro,61.5996,5.0328,57.27,87,20,3.44,NO,1690167161
216,cabedelo,-6.9811,-34.8339,72.27,85,18,11.9,BR,1690167162
217,bredasdorp,-34.5322,20.0403,51.64,55,100,6.51,ZA,1690167162
218,walvis bay,-22.9575,14.5053,53.1,93,9,8.05,NA,1690167162
219,patterson,37.4716,-121.1297,93.15,43,31,4.72,US,1690167162
220,haiku-pauwela,20.9219,-156.3051,86.02,66,40,20.71,US,1690167162
221,caleta de carquin,-11.0925,-77.6267,66.97,83,6,10.74,PE,1690167162
222,urussu,54.5981,53.4631,61.23,83,99,4.68,RU,1690167163
223,richards bay,-28.783,32.0377,65.48,86,99,12.84,ZA,1690167163
224,badger,64.8,-147.5333,87.67,44,0,3.44,US,1690167163
225,polyarnyy,69.1989,33.4478,49.01,95,100,12.82,RU,1690167163
226,jutai,-5.1833,-68.9,77.36,62,78,2.71,BR,1690167163
227,codrington,-38.2667,141.9667,57.49,68,92,11.5,AU,1690167163
228,puerto san jose,13.9256,-90.8244,80.15,85,100,4.7,GT,1690167164
229,prainha,-1.8,-53.48,78.28,65,48,2.48,BR,1690167164
230,cova figueira,14.8905,-24.2934,74.7,75,46,5.57,CV,1690167164
231,usogorsk,63.4106,48.6872,56.93,95,98,6.33,RU,1690167164
232,tura,25.5198,90.2201,81.39,88,95,4.21,IN,1690166906
233,vila franca do campo,37.7167,-25.4333,70.21,87,21,5.88,PT,1690167165
234,chul'man,56.8479,124.9104,75.43,54,100,1.36,RU,1690167165
235,murghob,38.1702,73.9667,55.24,49,6,2.62,TJ,1690167165
236,kaitong,44.8135,123.15,77.31,65,99,5.39,CN,1690167165
237,karlino,54.0351,15.8774,62.04,73,97,8.28,PL,1690167165
238,takoradi,4.8845,-1.7554,75.58,89,100,5.12,GH,1690167165
239,gaspe,48.8334,-64.4819,62.82,100,20,3.44,CA,1690167166
240,shalkar,47.8288,59.6258,81.09,29,0,10.85,KZ,1690167166
241,bandar abbas,27.1865,56.2808,91.38,70,20,6.91,IR,1690167166
242,urengoy,65.9667,78.3667,75.79,52,10,5.39,RU,1690167166
243,yarmouth,41.7057,-70.2286,73.99,89,0,5.75,US,1690167166
244,santana,-0.0583,-51.1817,80.78,94,20,5.75,BR,1690167128
245,lamont,35.2597,-118.9143,102.47,27,100,9.08,US,1690167167
246,holualoa,19.6228,-155.9522,80.44,94,75,10.36,US,1690167167
247,radcliffe on trent,52.948,-1.0386,56.19,95,100,8.01,GB,1690167167
248,barcelos,41.5388,-8.6151,65.91,97,99,3.02,PT,1690167167
249,kilindoni,-7.9139,39.6668,76.64,77,88,15.52,TZ,1690167168
250,bardai,11.65,7.2333,71.44,82,100,2.06,NG,1690167168
251,tomsk,58.5,82.5,66.54,88,100,2.84,RU,1690167168
252,tolanaro,-25.0319,46.9987,66.27,88,0,2.3,MG,1690167168
253,sunne,59.8376,13.143,46.81,88,83,2.28,SE,1690167168
254,ishinomaki,38.4167,141.3,82.4,69,100,6.22,JP,1690167168
255,carnarvon,-24.8667,113.6333,69.04,28,0,17.83,AU,1690167169
256,taree,-31.9,152.4667,66.22,63,25,6.71,AU,1690167169
257,belmonte,-15.8631,-38.8828,72.64,83,36,8.88,BR,1690167169
258,coruripe,-10.1256,-36.1756,72.99,84,22,8.03,BR,1690167009
259,matola,-25.9622,32.4589,64.35,55,20,9.22,MZ,1690167169
260,verkhnevilyuysk,63.4453,120.3167,86.7,37,15,7.63,RU,1690167170
261,touros,-5.1989,-35.4608,74.16,84,11,13.62,BR,1690167170
262,zyryanskoye,56.8306,86.6258,66.06,83,100,5.97,RU,1690167170
263,okhotsk,59.3833,143.3,68.11,66,11,11.99,RU,1690167170
264,klyuchi,52.2667,79.1667,79.29,31,59,6.2,RU,1690167171
265,puerto colombia,10.9878,-74.9547,82.49,86,100,21.74,CO,1690167171
266,cambria,35.5641,-121.0808,84.94,91,41,1.01,US,1690167171
267,lumajang,-8.1335,113.2248,84.07,55,32,3.62,ID,1690167171
268,kishtwar,33.3167,75.7667,74.71,69,16,1.34,IN,1690167171
269,youhao,47.8667,128.8333,65.62,95,100,4.38,CN,1690167172
270,st. john's,47.5649,-52.7093,70.99,94,20,12.66,CA,1690166993
271,kidal,18.4411,1.4078,92.07,35,90,10.69,ML,1690167172
272,mont-dore,-22.2833,166.5833,71.58,65,64,7.96,NC,1690167172
273,sola,-13.8833,167.55,76.37,89,100,18.99,VU,1690167172
274,margate,51.3813,1.3862,58.87,91,60,5.01,GB,1690167065
275,las tablas,7.7667,-80.2833,80.69,86,69,6.93,PA,1690167173
276,bengkulu,-3.8004,102.2655,75.15,89,100,2.68,ID,1690167173
277,susuman,62.7833,148.1667,61.02,51,66,6.2,RU,1690167173
278,natal,-5.795,-35.2094,75.42,83,40,10.36,BR,1690167173
279,mutuali,-14.8706,37.0044,59.0,81,0,2.35,MZ,1690167173
280,waverly,42.7392,-84.6208,69.73,83,40,0.0,US,1690167174
281,emerald,-23.5333,148.1667,55.35,71,100,18.81,AU,1690167174
282,vilyuysk,63.7553,121.6247,86.29,35,15,8.77,RU,1690166895
283,la passe,45.5549,-0.8967,68.23,91,100,12.28,FR,1690167174
284,kiunga,-6.1219,141.2906,77.05,83,98,2.77,PG,1690167174
285,horta,38.5333,-28.6333,71.02,85,20,4.0,PT,1690167175
286,kayes,14.0,-11.0,77.4,88,20,5.17,ML,1690167176
287,san jose del guaviare,2.5729,-72.6459,71.51,96,73,2.21,CO,1690167176
288,falmouth,50.1544,-5.0711,59.9,100,100,5.75,GB,1690167176
289,newman,37.3138,-121.0208,100.74,30,56,1.99,US,1690167176
290,khombole,14.7667,-16.7,83.21,78,100,4.54,SN,1690167177
291,kula,38.5473,28.6498,71.35,62,0,4.29,TR,1690167177
292,tan-tan,28.438,-11.1032,67.15,93,61,14.7,MA,1690167177
293,kaka,37.3482,59.6143,91.67,16,0,4.45,TM,1690167178
294,egersund,58.4513,5.9997,53.38,77,100,6.38,NO,1690167178
295,north battleford,52.7834,-108.2847,75.29,57,0,11.5,CA,1690167178
296,puerto deseado,-47.7503,-65.8938,32.99,72,50,6.91,AR,1690167179
297,nuuk,64.1835,-51.7216,47.01,87,8,11.5,GL,1690167179
298,bou arada,36.3525,9.6218,90.5,13,0,7.02,TN,1690167179
299,nelson bay,-32.7167,152.15,64.0,93,52,8.99,AU,1690167179
300,naze,28.3667,129.4833,83.32,80,52,9.89,JP,1690167179
301,itoman,26.1247,127.6694,90.37,68,75,12.66,JP,1690167180
302,guerrero negro,27.9769,-114.0611,68.18,83,75,15.88,MX,1690166931
303,godo,35.4167,136.6,93.06,81,30,4.99,JP,1690167180
304,selfoss,63.9331,-20.9971,52.05,78,100,3.0,IS,1690167180
305,tonala,20.6167,-103.2333,68.92,73,75,0.0,MX,1690167181
306,vrangel',42.7297,133.0839,69.31,100,100,3.71,RU,1690167181
307,cidade velha,14.9167,-23.6167,79.27,78,20,10.36,CV,1690167181
308,chimoio,-19.1164,33.4833,57.06,93,0,3.58,MZ,1690167181
309,arauca,7.0847,-70.7591,75.16,100,20,0.0,CO,1690167182
310,colby,39.3958,-101.0524,84.0,57,0,8.05,US,1690167182
311,akrehamn,59.2667,5.1833,59.25,88,75,4.61,NO,1690167182
312,kalmunai,7.4167,81.8167,82.08,68,100,5.97,LK,1690167182
313,isangel,-19.55,169.2667,75.31,69,100,3.44,VU,1690167182
314,changping,40.2186,116.2197,83.84,42,0,6.35,CN,1690167183
315,muang phonsavan,19.45,103.2167,82.94,55,44,1.72,LA,1690167183
316,maisi,43.0395,41.2621,66.18,97,95,1.54,GE,1690167183
317,harper,4.375,-7.7169,76.96,83,99,7.63,LR,1690167183
318,chernyshevskiy,63.0128,112.4714,84.16,35,31,7.18,RU,1690167183
319,hermosillo,29.0667,-110.9667,98.85,34,37,8.99,MX,1690167183
320,molinella,44.6213,11.6686,73.02,74,3,3.78,IT,1690167184
321,shuangjiang,26.1547,109.7138,87.4,58,83,7.7,CN,1690167184
322,yengema,8.7167,-11.1667,69.01,100,99,1.45,SL,1690167184
323,gebeit,21.0667,36.3167,83.71,19,28,3.56,SD,1690167184
324,el nido,11.1858,119.3956,81.1,85,100,16.71,PH,1690167184
325,labytnangi,66.6572,66.4183,68.38,64,23,5.75,RU,1690167185
326,as sulayyil,20.4607,45.5779,86.25,13,95,14.29,SA,1690167185
327,leh,34.1667,77.5833,62.44,53,24,5.48,IN,1690167185
328,nicoya,10.1483,-85.452,76.44,93,100,1.68,CR,1690167185
329,saint-jean-de-monts,46.7833,-2.0667,64.0,80,46,15.46,FR,1690167185
330,belo jardim,-8.3356,-36.4242,63.86,96,71,7.16,BR,1690167186
331,udachny,66.4167,112.4,70.45,56,100,13.31,RU,1690166916
332,chamical,-30.36,-66.314,52.93,37,63,4.47,AR,1690167186
333,vorgashor,67.5833,63.95,58.39,92,95,6.26,RU,1690167186
334,westerly,41.3776,-71.8273,75.06,85,0,6.91,US,1690167186
335,novodvinsk,64.4165,40.8122,49.77,98,100,3.96,RU,1690167187
336,tobelo,1.7284,128.0095,86.56,61,31,10.49,ID,1690167187
337,murzuq,25.9155,13.9184,84.04,15,47,10.16,LY,1690167187
338,muynoq,43.7683,59.0214,91.63,22,4,8.5,UZ,1690167187
339,kununurra,-15.7667,128.7333,69.78,24,7,17.27,AU,1690167187
340,baganga,7.5739,126.56,87.04,66,96,6.22,PH,1690167187
341,mountain home,43.133,-115.6912,96.28,17,0,10.36,US,1690167188
342,qaqortoq,60.7167,-46.0333,47.89,88,29,3.76,GL,1690167180
343,borogontsy,62.6683,131.1683,82.04,44,25,4.0,RU,1690167188
344,kamien pomorski,53.9685,14.7726,64.56,82,100,12.68,PL,1690167188
345,camalu,30.85,-116.0667,71.22,76,2,5.59,MX,1690167188
346,mossel bay,-34.1831,22.146,46.33,79,26,10.76,ZA,1690167188
347,babruysk,53.15,29.2333,58.08,87,100,10.42,BY,1690167189
348,concepcion,-36.827,-73.0498,44.4,100,40,0.0,CL,1690167189
349,puerto penasco,31.3167,-113.5333,88.92,73,19,5.66,MX,1690167189
350,darwin,-12.4611,130.8418,73.89,21,0,17.27,AU,1690167189
351,keflavik,64.0049,-22.5624,50.86,100,75,4.61,IS,1690167189
352,rawson,-43.3002,-65.1023,39.81,58,100,3.27,AR,1690167189
353,tshabong,-26.05,22.45,51.4,16,68,9.62,BW,1690167190
354,priargunsk,50.3691,119.1012,74.25,60,9,5.84,RU,1690167190
355,nikolayevsk-on-amure,53.1406,140.73,86.23,26,99,3.74,RU,1690167190
356,luderitz,-26.6481,15.1594,55.22,62,100,15.86,NA,1690166893
357,castillos,-34.1667,-53.8333,50.92,80,100,9.4,UY,1690167190
358,ingeniero guillermo n. juarez,-23.9,-61.85,64.92,50,10,8.37,AR,1690167191
359,tsiombe,-25.3,45.4833,61.88,95,0,5.57,MG,1690167175
360,la ligua,-32.4524,-71.2311,49.32,88,54,2.51,CL,1690167191
361,quelimane,-17.8786,36.8883,62.55,93,0,1.14,MZ,1690167191
362,korla,41.7597,86.1469,90.1,23,96,3.27,CN,1690167191
363,vadso,70.0744,29.7487,47.28,93,75,14.97,NO,1690167191
364,taulaga,-11.0553,-171.0883,83.25,74,8,12.57,AS,1690167192
365,sao felix do xingu,-6.6447,-51.995,71.37,50,62,1.92,BR,1690167192
366,jalingo,8.8833,11.3667,75.27,85,100,2.57,NG,1690167192
367,maceio,-9.6658,-35.7353,71.04,100,75,5.75,BR,1690167192
368,alo,7.4178,6.7371,73.02,98,98,2.71,NG,1690167192
369,ashland,40.8167,-82.2665,64.36,98,92,5.28,US,1690167193
370,shingu,33.7333,135.9833,84.18,65,0,5.64,JP,1690167193
371,new norfolk,-42.7826,147.0587,58.91,61,100,9.42,AU,1690167193
372,grand-lahou,5.1367,-5.0242,74.91,92,100,5.99,CI,1690167193
373,flying fish cove,-10.4217,105.6791,78.48,78,75,13.8,CX,1690166930
374,karratha,-20.7377,116.8463,68.05,35,0,26.02,AU,1690167194
375,aioun,16.6614,-9.6149,90.3,47,19,7.11,MR,1690167194
376,yuzhno-kurilsk,44.0306,145.8556,63.25,94,100,3.67,RU,1690167194
377,qarqaraly,49.4058,75.4742,80.15,23,93,11.43,KZ,1690167194
378,salinopolis,-0.6136,-47.3561,79.09,82,40,8.95,BR,1690167194
379,aykhal,66.0,111.5,73.26,59,100,15.77,RU,1690167195
380,sint michiel liber,12.15,-68.9833,82.22,83,20,13.8,CW,1690167195
381,tyre,33.2733,35.1939,81.21,70,0,7.67,LB,1690167195
382,kone,-21.0595,164.8658,70.81,50,81,3.44,NC,1690167195
383,ixtapa,20.7,-105.2,80.22,94,100,4.61,MX,1690166916
384,miquelon,47.0975,-56.3814,64.4,100,100,9.82,PM,1690167196
385,ciudad lazaro cardenas,17.9583,-102.2,83.34,76,100,2.37,MX,1690167196
386,santa ana,33.7456,-117.8678,86.74,80,75,12.66,US,1690166896
387,puerto armuelles,8.2833,-82.8667,80.1,77,100,3.0,PA,1690167196
388,smiths falls,44.9001,-76.0161,69.49,79,56,7.11,CA,1690167196
389,champerico,14.3,-91.9167,80.28,84,100,3.31,GT,1690167197
390,inirida,3.8653,-67.9239,74.64,94,74,1.97,CO,1690167197
391,old town,50.087,14.4202,68.29,59,0,6.91,CZ,1690167197
392,smithers,54.7804,-127.1743,57.52,82,100,0.0,CA,1690167197
393,nadi,-17.8,177.4167,78.8,65,75,6.91,FJ,1690167155
394,bucerias,20.75,-105.3333,80.98,89,100,3.42,MX,1690167197
395,coracora,-15.0333,-73.7833,53.19,40,10,4.54,PE,1690167198
396,newnham,-41.3833,147.1333,59.11,73,72,12.66,AU,1690167198
397,byalynichy,53.9983,29.7126,55.81,95,100,10.67,BY,1690167198
398,ryotsu-minato,38.0833,138.4333,84.15,64,100,2.84,JP,1690167198
399,tabriz,38.08,46.2919,76.46,33,20,13.8,IR,1690167012
400,trairi,-3.2778,-39.2689,77.34,83,15,8.3,BR,1690167199
401,kapa'a,22.0752,-159.319,85.98,86,75,16.11,US,1690167199
402,mariental,-24.6333,17.9667,53.22,15,21,7.94,NA,1690167199
403,nieuw nickerie,5.95,-56.9833,79.18,83,27,4.97,SR,1690167199
404,laojunmiao,39.8333,97.7333,80.08,18,1,5.95,CN,1690167200
405,parasia,22.2,78.7667,75.52,89,92,3.53,IN,1690167200
406,funafuti,-8.5243,179.1942,82.4,89,75,2.3,TV,1690167167
407,fort st. john,56.2499,-120.8529,71.49,35,75,10.36,CA,1690167200
408,al kharijah,25.4514,30.5464,84.76,25,19,6.89,EG,1690167200
409,letlhakane,-21.4167,25.5833,54.46,38,70,4.43,BW,1690167200
410,patacamaya,-17.2333,-67.9167,42.73,83,1,7.45,BO,1690167201
411,mukdahan,16.5833,104.5,80.35,76,79,6.62,TH,1690167201
412,kayyerkan,69.3786,87.7439,63.3,82,99,1.9,RU,1690167201
413,vallenar,-28.5708,-70.7581,60.12,54,73,1.39,CL,1690167201
414,cockburn town,21.4612,-71.1419,82.09,83,5,16.08,TC,1690167134
415,vaasa,63.096,21.6158,57.94,97,75,3.44,FI,1690167201
416,deming,32.2687,-107.7586,89.44,21,31,7.52,US,1690167202
417,padang,-0.9492,100.3543,84.25,71,99,2.13,ID,1690167202
418,saint-philippe,-21.3585,55.7679,69.39,85,40,11.25,RE,1690167202
419,narvik,68.4384,17.4272,56.61,89,100,1.32,NO,1690167202
420,ambon,-3.6954,128.1814,79.88,92,40,8.05,ID,1690167202
421,minas de marcona,-15.2119,-75.1103,54.59,87,53,11.05,PE,1690167203
422,uacu cungo,-11.3634,15.1208,59.52,40,58,2.71,AO,1690167203
423,dubbo,-32.25,148.6167,62.73,51,0,12.66,AU,1690167203
424,salisbury,51.0693,-1.7957,60.46,96,75,4.61,GB,1690166953
425,frutal,-20.0247,-48.9406,67.15,49,0,6.06,BR,1690167203
426,weining,26.85,104.2333,69.94,74,100,8.59,CN,1690167203
427,prince edward,44.0001,-77.2495,71.42,89,70,1.99,CA,1690166927
428,turkmenbasy,40.0222,52.9552,83.17,23,0,9.22,TM,1690167204
429,crane,31.3974,-102.3501,92.57,21,45,10.58,US,1690166996
430,ivins,37.1686,-113.6794,97.92,54,95,10.58,US,1690167204
431,esikhaleni,-28.871,31.8996,65.1,88,99,16.93,ZA,1690167204
432,conde,-7.2597,-34.9075,71.06,100,20,6.91,BR,1690167204
433,pacific grove,36.6177,-121.9166,65.21,84,0,9.22,US,1690167205
434,ust'-ordynskiy,52.805,104.7508,60.57,95,100,8.03,RU,1690167205
435,saldanha,-33.0117,17.9442,39.25,79,1,7.52,ZA,1690167205
436,trapani,37.8333,12.6667,87.28,69,0,8.05,IT,1690167205
437,labrador city,52.9463,-66.9114,58.91,94,75,3.44,CA,1690167205
438,nova sintra,14.8667,-24.7167,74.08,75,86,8.59,CV,1690166926
439,bambari,5.768,20.6757,70.0,93,24,3.11,CF,1690167206
440,eraan,9.0629,117.7016,84.88,75,100,12.84,PH,1690167206
441,coahuayana de hidalgo,18.7,-103.6583,80.38,81,80,0.78,MX,1690167206
442,visby,57.6409,18.296,56.82,100,75,5.75,SE,1690167079
443,borgarnes,64.5383,-21.9206,52.81,89,95,1.12,IS,1690167206
444,medicine hat,50.0501,-110.6683,90.03,34,20,6.91,CA,1690167181
445,tual,-5.6667,132.75,77.16,77,95,24.81,ID,1690167207
446,micheweni,-4.9667,39.8333,74.25,86,32,10.69,TZ,1690167207
447,ilhabela,-23.7781,-45.3581,67.71,67,1,4.05,BR,1690167207
448,bermeo,43.4209,-2.7215,66.81,84,100,6.38,ES,1690167207
449,jwaneng,-24.6004,24.7303,53.92,49,60,7.99,BW,1690167207
450,colonia,50.9333,6.95,65.97,85,100,5.75,DE,1690167208
451,kenai,60.5544,-151.2583,66.29,87,20,13.8,US,1690167208
452,berezovyy,51.6667,135.7,78.82,54,100,3.29,RU,1690167208
453,anajatuba,-3.2644,-44.6197,73.0,89,5,2.51,BR,1690167208
454,primorsk,46.7348,36.3443,64.8,73,63,12.44,UA,1690167208
455,traben-trarbach,49.95,7.1167,68.9,79,0,6.91,DE,1690167208
456,santa terezinha,-29.9002,-50.0904,61.09,96,42,6.15,BR,1690167209
457,selkirk,50.1436,-96.8845,69.87,85,6,4.7,CA,1690167098
458,phan thiet,10.9333,108.1,86.56,62,79,13.67,VN,1690167209
459,okha,53.5739,142.9478,75.24,46,40,10.63,RU,1690166928
460,bodaybo,57.8506,114.1933,83.3,46,7,0.58,RU,1690167209
461,barranca,-10.75,-77.7667,66.56,83,11,8.7,PE,1690167209
462,merizo village,13.2658,144.6691,88.36,84,100,15.9,GU,1690167210
463,corner brook,48.9667,-57.9484,71.76,99,100,3.69,CA,1690167210
464,salahonda,2.1019,-78.7217,81.66,80,54,7.52,CO,1690167210
465,astrakhan,46.3497,48.0408,73.27,83,0,2.24,RU,1690167210
466,nizhnesortymskiy,62.4397,71.7603,72.5,54,70,1.92,RU,1690167211
467,lompoc,34.6391,-120.4579,78.94,93,100,4.61,US,1690167102
468,abepura,-2.6333,140.5833,85.01,62,20,8.05,ID,1690167211
469,kurmuk,10.55,34.2833,70.45,91,100,5.55,SD,1690167211
470,al majaridah,19.1236,41.9111,89.42,28,79,3.91,SA,1690167211
471,hualien city,23.9769,121.6044,88.65,63,99,5.64,TW,1690167212
472,nova vicosa,-17.8919,-39.3719,71.19,85,14,7.27,BR,1690167212
473,zeya,53.75,127.2667,86.86,29,100,7.85,RU,1690167212
474,lerwick,60.1545,-1.1494,51.8,86,100,18.25,GB,1690167212
475,pemangkat,1.1667,108.9667,84.56,74,88,10.67,ID,1690167212
476,kayangel,8.0823,134.7173,83.62,76,100,14.7,PW,1690167212
477,albacete,38.8333,-2.0,81.41,32,0,9.22,ES,1690166971
478,al jawf,29.5,38.75,80.22,35,0,6.76,SA,1690167213
479,karachi,24.9056,67.0822,84.02,79,100,0.0,PK,1690167199
480,ulladulla,-35.35,150.4667,58.68,57,5,6.24,AU,1690167020
481,jennings,38.7192,-90.2604,79.7,73,0,3.44,US,1690167213
482,mil'kovo,55.6078,37.7956,56.71,88,36,5.82,RU,1690167213
483,tralee,52.2704,-9.7026,54.64,93,98,4.61,IE,1690167214
484,turabah,21.2141,41.6331,79.48,18,72,2.46,SA,1690167214
485,bisbee,31.4482,-109.9284,77.65,65,81,9.48,US,1690167214
486,daimiel,39.07,-3.615,76.03,32,13,7.63,ES,1690167214
487,alofi,-19.0595,-169.9187,78.69,65,20,11.5,NU,1690167214
488,nouadhibou,20.931,-17.0347,70.14,85,25,14.34,MR,1690167215
489,daru,-9.0763,143.2092,78.62,65,54,8.32,PG,1690167215
490,san andres,12.5847,-81.7006,84.22,84,20,12.66,CO,1690167215
491,ola,59.5833,151.2833,71.15,62,77,8.66,RU,1690167215
492,ndjole,-0.1783,10.7649,72.68,91,100,3.6,GA,1690167215
493,mushie,-3.0167,16.9,74.52,64,5,2.84,CD,1690167217
494,homer,59.6425,-151.5483,65.05,65,0,17.27,US,1690167059
495,guarapari,-20.6667,-40.4975,66.88,89,47,4.32,BR,1690167082
496,mount gambier,-37.8333,140.7667,57.74,64,78,7.43,AU,1690167217
497,knin,44.0439,16.2,72.12,62,0,5.1,HR,1690167218
498,hozat,39.1083,39.2213,62.22,65,0,5.06,TR,1690167218
499,almirante,9.3,-82.4,75.81,82,100,3.0,PA,1690167153
500,ciudad rio bravo,25.9833,-98.1,89.51,68,5,12.48,MX,1690167219
501,talcahuano,-36.7167,-73.1167,44.28,100,40,0.0,CL,1690167219
502,burutu,5.3509,5.5076,75.0,93,100,6.26,NG,1690167220
503,dembi dolo,8.5333,34.8,57.4,95,99,4.45,ET,1690167220
504,tutoia,-2.7619,-42.2744,77.05,89,50,9.37,BR,1690167220
505,tofol,5.3248,163.0078,83.98,84,75,3.44,FM,1690167220
506,essaouira,31.5125,-9.77,69.3,92,0,8.05,MA,1690167220
507,eyl,7.9803,49.8164,78.98,61,58,21.79,SO,1690167221
508,ko pha ngan,9.7578,100.0291,81.28,80,100,15.73,TH,1690167221
509,port augusta,-32.5,137.7667,59.7,53,5,12.26,AU,1690167221
510,coquimbo,-29.9533,-71.3436,56.93,88,0,4.61,CL,1690167196
511,afaahiti,-17.75,-149.2833,78.67,81,91,10.2,PF,1690167221
512,harstad,68.799,16.5293,56.62,99,100,1.99,NO,1690167199
513,kerema,-7.9631,145.7785,79.21,69,57,6.24,PG,1690167222
514,kantharalak,14.6406,104.6499,79.61,85,100,4.83,TH,1690167222
515,belpre,39.274,-81.5729,69.12,83,0,0.0,US,1690167222
516,weno,7.4515,151.8468,82.54,76,100,9.89,FM,1690167222
517,charleston,32.7766,-79.9309,75.38,97,75,6.91,US,1690166957
518,wahpeton,46.2652,-96.6059,75.92,69,75,5.75,US,1690167222
519,ecija,37.5422,-5.0826,76.78,42,71,5.75,ES,1690167223
520,hilo,19.7297,-155.09,82.13,84,100,9.22,US,1690166990
521,libreville,0.3925,9.4537,77.02,88,75,6.91,GA,1690167223
522,antofagasta,-23.65,-70.4,63.68,88,56,2.95,CL,1690167127
523,santa maria da vitoria,-13.3947,-44.1886,73.27,59,83,5.7,BR,1690167223
524,polyarnyye zori,67.3661,32.4981,43.66,95,100,8.68,RU,1690167223
525,dourados,-22.2211,-54.8056,66.61,57,0,4.92,BR,1690167224
526,cabo san lucas,22.8909,-109.9124,86.05,83,100,9.22,MX,1690167024
527,callao,-12.0667,-77.15,70.72,73,100,10.36,PE,1690167224
528,santa elena de uairen,4.6167,-61.1333,66.29,96,94,0.98,VE,1690167224
529,severo-yeniseyskiy,60.3725,93.0408,76.93,46,37,1.95,RU,1690167224
530,palikir - national government center,6.9248,158.1611,88.54,70,100,4.61,FM,1690167224
531,itaituba,-4.2761,-55.9836,76.57,53,44,1.03,BR,1690167225
532,siguiri,11.6667,-9.5,72.64,92,35,2.13,GN,1690167225
533,nagqu,31.5,92.0,35.31,99,100,3.53,CN,1690167225
534,san jeronimo,-11.9472,-75.2829,45.93,81,2,1.79,PE,1690167225
535,bom jesus,-9.0744,-44.3586,69.39,59,0,3.6,BR,1690167225
536,davlekanovo,54.2215,55.0343,65.84,61,100,4.9,RU,1690167225
537,pudozh,61.8099,36.5345,54.73,98,100,8.3,RU,1690167226
538,nemuro,43.3236,145.575,64.06,92,98,13.91,JP,1690167226
539,karyes,37.3,22.5,80.2,33,0,4.25,GR,1690167226
540,revda,56.801,59.9303,62.4,69,6,6.91,RU,1690167226
541,sarankhola,22.3082,89.7897,87.22,69,100,8.1,BD,1690167226
542,bodo,67.28,14.405,56.77,93,100,3.44,NO,1690167226
543,bumba,2.1833,22.4667,70.48,95,61,3.2,CD,1690167227
544,la'ie,21.6477,-157.9253,89.56,76,6,14.09,US,1690167227
545,umm kaddadah,13.6017,26.6876,86.04,44,41,10.83,SD,1690167227
546,mungaa,-4.9667,34.8833,54.3,91,11,6.62,TZ,1690167227
547,mayahi,13.9553,7.6712,80.24,65,100,10.42,NE,1690167228
548,wotje,9.4543,170.2367,83.5,78,18,18.07,MH,1690167228
549,carutapera,-1.195,-46.02,76.17,88,20,5.3,BR,1690167228
550,conceicao da barra,-18.5933,-39.7322,69.08,88,45,4.43,BR,1690167155
551,timbuktu,16.7735,-3.0074,89.13,46,42,7.49,ML,1690167228
