City_ID,City,Lat,Lng,Max Temp,Humidity,Cloudiness,Wind Speed,Country,Date
0,waitangi,-43.9535,-176.5597,286.38,96,93,2.24,NZ,1690155391
1,port-aux-francais,-49.35,70.2167,278.63,94,83,15.85,TF,1690155107
2,adamstown,-25.066,-130.1015,293.62,69,35,7.63,PN,1690155107
3,loiza,18.4313,-65.8802,303.15,73,40,5.14,PR,1690155391
4,san pedro pochutla,15.7333,-96.4667,295.99,70,95,1.82,MX,1690155392
5,kalyandurg,14.5452,77.1055,296.02,81,100,9.61,IN,1690155392
6,bredasdorp,-34.5322,20.0403,282.98,72,59,2.67,ZA,1690155392
7,paulden,34.8856,-112.4682,298.25,71,60,9.83,US,1690155392
8,atafu village,-8.5421,-172.5159,302.0,75,11,6.66,TK,1690155392
9,aasiaat,68.7098,-52.8699,276.7,97,100,0.57,GL,1690155393
10,albany,42.6001,-73.9662,299.39,65,67,0.88,US,1690155197
11,prince george,53.9166,-122.753,293.85,54,20,1.54,CA,1690155393
12,hamilton,39.1834,-84.5333,300.84,48,20,3.09,US,1690155359
13,puerto natales,-51.7236,-72.4875,269.49,92,8,1.61,CL,1690155118
14,hammerfest,70.6634,23.6821,282.4,81,20,4.63,NO,1690155393
15,la'ie,21.6477,-157.9253,304.13,72,7,6.26,US,1690155172
16,isafjordur,66.0755,-23.124,284.0,89,100,1.79,IS,1690155225
17,iqaluit,63.7506,-68.5145,282.0,70,20,2.57,CA,1690155393
18,haiku-pauwela,20.9219,-156.3051,303.16,66,20,10.8,US,1690155181
19,mount gambier,-37.8333,140.7667,285.35,84,100,1.19,AU,1690155394
20,college,64.8569,-147.8028,302.14,44,40,2.57,US,1690155245
21,turpan,42.9333,89.1667,309.0,17,100,2.48,CN,1690155394
22,cockburn town,21.4612,-71.1419,303.13,66,20,4.12,TC,1690155394
23,ushuaia,-54.8,-68.3,272.96,80,20,3.6,AR,1690155394
24,port isabel,26.0734,-97.2086,308.17,69,0,6.69,US,1690155139
25,edinburgh of the seven seas,-37.0676,-12.3116,286.62,81,52,11.16,SH,1690155394
26,qaqortoq,60.7167,-46.0333,279.27,95,66,1.7,GL,1690155394
27,tullahoma,35.362,-86.2094,301.96,55,0,2.06,US,1690155394
28,gharyan,32.1722,13.0203,303.28,15,0,4.18,LY,1690155394
29,humberto de campos,-2.5983,-43.4611,297.56,85,62,1.79,BR,1690155395
30,grytviken,-54.2811,-36.5092,266.97,77,29,3.87,GS,1690155395
31,choix,26.7092,-108.3219,310.2,40,50,3.48,MX,1690155395
32,sisimiut,66.9395,-53.6735,279.45,89,94,0.54,GL,1690155201
33,pretoria,-25.7449,28.1878,286.99,77,98,0.0,ZA,1690155322
34,port alfred,-33.5906,26.891,284.36,82,89,2.68,ZA,1690155395
35,la passe,45.5549,-0.8967,293.7,89,100,4.21,FR,1690155237
36,bafra,41.5678,35.9069,295.62,69,5,2.08,TR,1690155395
37,gao,16.6362,1.637,307.34,38,52,4.13,ML,1690155395
38,naze,28.3667,129.4833,300.66,75,47,1.98,JP,1690155395
39,salalah,17.0151,54.0924,298.2,100,100,2.57,OM,1690155395
40,yellowknife,62.456,-114.3525,294.44,43,100,5.14,CA,1690155396
41,mil'kovo,55.6078,37.7956,287.23,91,59,3.22,RU,1690155396
42,lebu,-37.6167,-73.65,281.64,85,83,1.58,CL,1690155396
43,saipan,15.1355,145.701,302.54,100,40,4.63,MP,1690155396
44,tura,25.5198,90.2201,297.11,97,99,1.98,IN,1690155125
45,labrador city,52.9463,-66.9114,294.1,73,75,1.54,CA,1690155396
46,mana,5.6592,-53.7767,299.05,85,12,3.37,GF,1690155396
47,claveria,18.6074,121.0832,301.15,80,100,5.71,PH,1690155396
48,ust-nera,64.5667,143.2,291.46,51,37,0.34,RU,1690155396
49,new norfolk,-42.7826,147.0587,285.88,69,97,2.91,AU,1690155233
50,margaret river,-33.95,115.0667,287.15,69,0,7.57,AU,1690155397
51,hell-ville,-13.4,48.2667,298.16,69,64,2.9,MG,1690155397
52,kailua-kona,19.6406,-155.9956,303.13,84,40,5.14,US,1690155234
53,mariental,-24.6333,17.9667,286.72,11,62,3.09,NA,1690155397
54,levuka,50.1834,-105.4011,302.99,27,37,3.59,CA,1690155397
55,ta`u,-14.2336,-169.5144,299.93,72,14,6.29,AS,1690155397
56,reggane,26.7158,0.1714,310.67,16,48,1.03,DZ,1690155397
57,bilibino,68.0546,166.4372,291.23,62,85,1.03,RU,1690155397
58,avarua,-21.2078,-159.775,300.18,89,8,6.17,CK,1690155310
59,tazovsky,67.4667,78.7,288.34,88,75,1.92,RU,1690155141
60,tiksi,71.6872,128.8694,282.62,58,4,1.64,RU,1690155397
61,at taj,24.2049,23.2857,302.98,20,6,4.09,LY,1690155397
62,nishinoomote,30.7333,131.0,300.46,100,40,3.09,JP,1690155179
63,new plymouth,-39.0667,174.0833,284.44,79,89,1.45,NZ,1690155304
64,ulladulla,-35.35,150.4667,286.36,64,16,1.33,AU,1690155398
65,stanley,54.868,-1.6985,284.97,94,20,4.12,GB,1690155398
66,neiafu,-18.65,-173.9833,299.53,65,20,3.6,TO,1690155175
67,withernsea,53.7311,0.0335,287.29,91,100,8.74,GB,1690155398
68,srikakulam,18.3,83.9,299.65,88,88,1.13,IN,1690155398
69,katsuren-haebaru,26.3369,127.8719,304.16,78,40,5.14,JP,1690155398
70,ilulissat,69.2167,-51.1,281.16,87,100,2.57,GL,1690155398
71,vanino,49.0869,140.2543,294.21,77,98,2.05,RU,1690155398
72,sao mateus do maranhao,-4.0417,-44.475,298.74,51,65,0.57,BR,1690155399
73,praia,14.9215,-23.5087,299.45,78,40,4.63,CV,1690155399
74,queenstown,-31.8976,26.8753,278.94,83,59,1.19,ZA,1690155210
75,utrik,11.2278,169.8474,301.62,79,61,8.27,MH,1690155188
76,santa branca,-23.3967,-45.8839,291.97,68,20,3.6,BR,1690155399
77,olonkinbyen,70.9221,-8.7187,277.89,91,99,5.35,SJ,1690155149
78,rosario del tala,-32.3029,-59.1455,287.79,53,89,5.18,AR,1690155399
79,weno,7.4515,151.8468,302.12,79,100,2.57,FM,1690155399
80,port lincoln,-34.7333,135.8667,286.06,75,100,1.34,AU,1690155118
81,mangalia,43.8,28.5833,294.3,73,0,1.86,RO,1690155399
82,medenine,33.355,10.5055,305.81,18,0,4.01,TN,1690155399
83,nechi,8.0942,-74.7757,301.2,80,77,0.9,CO,1690155113
84,dazhong,33.1997,120.4578,300.98,87,0,2.1,CN,1690155400
85,conceicao do almeida,-12.7794,-39.17,291.68,98,8,1.93,BR,1690155400
86,chibougamau,49.9168,-74.3659,297.94,36,20,1.73,CA,1690155121
87,igrim,63.1906,64.4162,289.05,91,99,0.58,RU,1690155400
88,blackmans bay,-43.0167,147.3167,285.22,73,86,2.34,AU,1690155115
89,afaahiti,-17.75,-149.2833,301.08,77,57,4.63,PF,1690155400
90,remire-montjoly,4.9167,-52.2667,298.17,94,0,1.03,GF,1690155400
91,tolanaro,-25.0319,46.9987,294.19,78,20,5.14,MG,1690155400
92,ghormach,35.7306,63.7826,298.9,22,1,1.14,AF,1690155400
93,humenne,48.9371,21.9163,289.43,73,42,1.89,SK,1690155400
94,tanjung pinang,0.9167,104.45,298.17,73,45,5.35,ID,1690155400
95,port mathurin,-19.6833,63.4167,296.01,75,8,7.42,MU,1690155183
96,praia da vitoria,38.7333,-27.0667,295.79,88,40,4.53,PT,1690155401
97,el calafate,-50.3408,-72.2768,267.01,75,5,0.8,AR,1690155401
98,elverum,60.8819,11.5623,282.97,95,35,1.97,NO,1690155401
99,longyearbyen,78.2186,15.6401,283.06,76,40,5.66,SJ,1690155401
100,kudat,6.8837,116.8477,299.11,94,20,0.0,MY,1690155401
101,ugoofaaru,5.6667,73.0,301.1,80,64,5.03,MV,1690155401
102,colonel hill,22.7667,-74.2167,301.63,72,3,5.38,BS,1690155401
103,broome,42.2506,-75.833,299.36,63,40,2.57,US,1690155401
104,inarajan village,13.2736,144.7484,303.37,85,100,6.39,GU,1690155401
105,okhotsk,59.3833,143.3,294.18,55,6,0.66,RU,1690155400
106,bethel,41.3712,-73.414,301.2,66,75,0.0,US,1690155402
107,itamarandiba,-17.8572,-42.8589,290.56,87,56,2.58,BR,1690155402
108,laojunmiao,39.8333,97.7333,296.7,23,61,0.91,CN,1690155167
109,puerto ayora,-0.7393,-90.3518,298.01,80,41,4.65,EC,1690155402
110,lihue,21.9789,-159.3672,302.92,73,75,6.17,US,1690155184
111,miches,18.9836,-69.0476,300.31,83,85,3.49,DO,1690155402
112,nar'yan-mar,67.6713,53.087,287.69,97,100,2.75,RU,1690155402
113,angaur state,6.906,134.13,301.29,78,97,7.94,PW,1690155402
114,badger,64.8,-147.5333,302.1,43,0,2.57,US,1690155112
115,wuyang,31.9925,116.2472,301.84,77,12,1.24,CN,1690155402
116,northam,51.0333,-4.2167,289.07,93,99,2.9,GB,1690155402
117,laguna,38.421,-121.4238,313.45,29,0,4.12,US,1690155403
118,ulanhot,46.0833,122.0833,293.96,77,100,2.3,CN,1690155403
119,yorkton,51.2167,-102.4677,299.06,53,0,5.14,CA,1690155403
120,vila velha,-20.3297,-40.2925,294.23,92,40,1.54,BR,1690155274
121,mount pearl,47.5166,-52.7813,295.34,90,75,4.63,CA,1690155227
122,richmond,37.5538,-77.4603,302.08,67,75,4.12,US,1690155232
123,pont rouge,48.8833,-72.0825,297.31,83,48,2.09,CA,1690155403
124,east london,-33.0153,27.9116,287.09,66,100,5.18,ZA,1690155403
125,hobyo,5.3505,48.5268,297.94,82,46,11.41,SO,1690155403
126,constantia,44.1833,28.65,290.76,65,0,2.74,RO,1690155173
127,boulder city,35.9786,-114.8325,317.0,13,0,10.29,US,1690155403
128,spring creek,40.7266,-115.5859,307.2,9,91,4.09,US,1690155403
129,tual,-5.6667,132.75,298.32,77,99,11.67,ID,1690155404
130,vorkuta,67.5,64.0,287.58,96,100,2.9,RU,1690155404
131,arraial do cabo,-22.9661,-42.0278,294.41,87,0,9.99,BR,1690155404
132,wailua homesteads,22.0669,-159.378,302.59,79,75,6.17,US,1690155404
133,forster,-32.1667,152.5167,288.87,81,72,3.24,AU,1690155404
134,acarau,-2.8856,-40.12,300.13,80,41,8.76,BR,1690155404
135,west island,-12.1568,96.8225,298.14,83,40,5.66,CC,1690155119
136,jogeva,58.7467,26.3939,284.2,99,70,1.68,EE,1690155404
137,kwangyang,34.9753,127.5892,298.87,92,100,0.53,KR,1690155404
138,ulety,51.3572,112.4849,292.33,58,74,1.45,RU,1690155404
139,port elizabeth,-33.918,25.5701,284.32,72,46,6.98,ZA,1690155404
140,pine bluff,34.2284,-92.0032,307.11,54,0,2.06,US,1690155368
141,papatowai,-46.5619,169.4708,283.27,89,94,0.8,NZ,1690155405
142,palafrugell,41.9174,3.1631,298.9,53,46,3.5,ES,1690155405
143,ain bessem,36.2933,3.6732,304.99,10,0,5.94,DZ,1690155405
144,polyarnyy,69.1989,33.4478,282.41,95,100,6.7,RU,1690155405
145,sirvan,39.9379,48.9286,298.82,63,0,0.94,AZ,1690155405
146,lubango,-14.9172,13.4925,288.07,55,18,2.57,AO,1690155405
147,kutum,14.2,24.6667,300.27,45,32,2.89,SD,1690155405
148,rantepao,-2.9701,119.8978,296.46,90,66,0.11,ID,1690155405
149,plettenberg bay,-34.0527,23.3716,282.02,89,49,2.3,ZA,1690155405
150,anadyr,64.75,177.4833,287.43,82,100,1.0,RU,1690155405
151,sitka,57.0531,-135.33,288.09,88,100,2.06,US,1690155405
152,salanso,12.1833,-4.0833,299.35,75,80,2.6,BF,1690155406
153,punta arenas,-53.15,-70.9167,272.08,83,7,2.85,CL,1690155133
154,barbastro,42.0356,0.1269,298.45,79,52,2.9,ES,1690155406
155,champerico,14.3,-91.9167,299.45,73,100,0.85,GT,1690155406
156,bardai,11.65,7.2333,294.69,83,100,2.05,NG,1690155243
157,thomson,33.4707,-82.5046,298.61,81,0,4.12,US,1690155406
158,umluj,25.0213,37.2685,303.73,49,1,2.68,SA,1690155406
159,kodiak,57.79,-152.4072,290.88,68,0,4.12,US,1690155114
160,georgetown,5.4112,100.3354,300.11,97,20,0.51,MY,1690155242
161,kharabali,47.4196,47.2568,296.0,70,78,2.35,RU,1690155406
162,ribeira grande,38.5167,-28.7,295.8,85,18,3.13,PT,1690155183
163,thompson,55.7435,-97.8558,295.24,40,20,5.66,CA,1690155407
164,ghat,24.9647,10.1728,304.86,11,45,3.01,LY,1690155407
165,road town,18.4167,-64.6167,303.2,70,20,4.12,VG,1690155331
166,emerald,-23.5333,148.1667,282.78,84,100,5.3,AU,1690155407
167,rouyn-noranda,48.2398,-79.0288,299.2,47,75,5.14,CA,1690155132
168,tyukhtet,56.5389,89.3011,289.92,85,97,2.93,RU,1690155208
169,toliara,-23.35,43.6667,291.1,91,3,2.67,MG,1690155407
170,pierre,44.3683,-100.351,307.66,38,0,9.26,US,1690155152
171,kasempa,-13.4584,25.8338,287.45,53,0,2.54,ZM,1690155407
172,wanxian,30.8039,108.3897,300.35,83,99,1.71,CN,1690155407
173,saint-francois,46.4154,3.9054,293.84,73,0,0.51,FR,1690155200
174,novoorsk,51.381,58.9813,289.51,60,91,2.87,RU,1690155407
175,khandyga,62.6667,135.6,296.84,62,14,0.54,RU,1690155159
176,luganville,-15.5333,167.1667,297.21,83,100,5.28,VU,1690155407
177,dunedin,-45.8742,170.5036,282.48,97,100,1.34,NZ,1690155313
178,invercargill,-46.4,168.35,281.58,95,99,0.38,NZ,1690155408
179,esquel,-42.9,-71.3167,272.69,87,100,1.42,AR,1690155408
180,walvis bay,-22.9575,14.5053,284.31,93,11,3.6,NA,1690155408
181,enewetak,11.3474,162.3373,301.7,77,85,8.82,MH,1690155408
182,murrells inlet,33.551,-79.0414,301.54,91,75,5.66,US,1690155408
183,vorgashor,67.5833,63.95,287.58,96,100,2.74,RU,1690155408
184,rio grande,-32.035,-52.0986,289.21,68,100,2.79,BR,1690155408
185,solok,-0.7918,100.6593,294.99,95,100,0.85,ID,1690155408
186,calama,-22.4667,-68.9333,291.42,14,0,7.2,CL,1690155248
187,san antonio de pale,-1.4014,5.6325,295.8,81,98,5.37,GQ,1690155409
188,byumba,-1.5763,30.0675,288.26,59,66,0.66,RW,1690155409
189,jamestown,42.097,-79.2353,298.92,73,40,4.63,US,1690155132
190,plauen,50.5,12.1333,293.58,60,98,0.45,DE,1690155409
191,ad dabbah,18.05,30.95,305.67,11,23,4.01,SD,1690155409
192,udachny,66.4167,112.4,293.4,63,91,5.46,RU,1690155409
193,holualoa,19.6228,-155.9522,301.06,85,40,5.14,US,1690155171
194,sabrosa,41.267,-7.576,288.2,89,58,1.75,PT,1690155409
195,zvezdnyy,57.7325,56.3147,286.48,91,26,1.72,RU,1690155409
196,jumla,29.2747,82.1838,290.46,95,99,0.44,NP,1690155410
197,gwadar,25.1216,62.3254,301.17,86,100,0.92,PK,1690155410
198,montagu,-40.7667,144.9667,285.32,79,100,6.3,AU,1690155410
199,hawaiian paradise park,19.5933,-154.9731,300.88,86,75,5.14,US,1690155168
200,ca mau,9.1769,105.15,298.78,91,66,1.63,VN,1690155410
201,san jeronimo de juarez,17.1333,-100.4667,304.46,61,33,1.98,MX,1690155410
202,itaueira,-7.6033,-43.0256,298.61,38,0,2.73,BR,1690155411
203,vilyuchinsk,52.9306,158.4028,295.3,73,51,5.98,RU,1690155177
204,esperanza,19.5847,-70.9849,303.47,75,87,1.79,DO,1690155411
205,abilene,32.4487,-99.7331,312.14,20,0,2.06,US,1690155411
206,filadelfia,39.9523,-75.1638,303.15,48,40,3.6,US,1690155398
207,manokwari,-0.8667,134.0833,300.49,76,99,2.38,ID,1690155411
208,brookings,44.3114,-96.7984,302.65,62,5,4.02,US,1690155411
209,lianga,8.6336,126.0947,299.55,83,100,1.93,PH,1690155411
210,yeppoon,-23.1333,150.7333,285.03,89,100,2.5,AU,1690155411
211,muisne,0.6,-80.0333,299.41,81,87,5.46,EC,1690155411
212,acoyapa,11.9703,-85.1711,301.2,82,34,4.89,NI,1690155412
213,belmonte,-15.8631,-38.8828,293.68,96,31,1.16,BR,1690155412
214,sinabang,2.4803,96.3801,299.09,81,91,0.82,ID,1690155228
215,taulaga,-11.0553,-171.0883,301.62,74,11,5.32,AS,1690155412
216,itumba,-9.4,33.1833,285.51,96,45,1.87,TZ,1690155412
217,adigrat,14.277,39.462,286.88,95,41,2.42,ET,1690155412
218,howrah,22.5892,88.3103,300.15,100,40,1.54,IN,1690155412
219,kiruna,67.8557,20.2251,281.66,93,75,3.6,SE,1690155412
220,rawson,-43.3002,-65.1023,277.66,56,74,2.2,AR,1690155412
221,tarko-sale,64.9225,77.785,293.26,64,73,2.94,RU,1690155412
222,uturoa,-16.7333,-151.4333,298.93,76,56,5.01,PF,1690155145
223,carloforte,39.145,8.3058,301.06,64,18,5.33,IT,1690155413
224,gainesville,29.6516,-82.3248,299.21,76,20,2.57,US,1690155192
225,concepcion,-36.827,-73.0498,282.04,93,0,0.51,CL,1690155125
226,souillac,-20.5167,57.5167,295.36,88,75,5.14,MU,1690155413
227,avenal,36.0041,-120.129,314.02,8,63,7.56,US,1690155413
228,qusmuryn,52.4503,64.6311,289.36,70,42,1.69,KZ,1690155413
229,kingston,17.997,-76.7936,304.95,68,20,12.35,JM,1690155237
230,zapala,-38.8992,-70.0544,274.36,91,100,5.69,AR,1690155174
231,ola,59.5833,151.2833,292.12,71,90,0.76,RU,1690155275
232,kiama,-34.6833,150.8667,288.71,69,73,4.42,AU,1690155413
233,bangassou,4.7413,22.8184,293.97,96,92,0.7,CF,1690155211
234,delijan,33.9905,50.6838,301.84,18,62,1.51,IR,1690155414
235,las heras,-46.5419,-68.9359,271.92,61,32,2.5,AR,1690155414
236,aral,40.5156,81.2636,302.01,27,98,1.91,CN,1690155414
237,hithadhoo,-0.6,73.0833,301.34,76,81,3.92,MV,1690155251
238,lorengau,-2.0226,147.2712,301.61,72,95,2.76,PG,1690155414
239,cabo san lucas,22.8909,-109.9124,305.4,79,100,4.12,MX,1690155187
240,tandalti,13.0167,31.8667,303.85,47,100,4.21,SD,1690155414
241,bridgewater,44.3835,-64.5155,294.97,94,41,4.63,CA,1690155414
242,flying fish cove,-10.4217,105.6791,296.97,88,75,5.66,CX,1690155414
243,codajas,-3.8367,-62.0569,301.04,47,43,1.05,BR,1690155414
244,tres arroyos,-38.3739,-60.2798,278.97,69,100,3.82,AR,1690155414
245,khanty-mansiysk,61.0042,69.0019,290.21,100,20,1.0,RU,1690155415
246,el bauga,18.262,33.9081,305.28,11,22,4.38,SD,1690155415
247,varennes-vauzelles,47.0168,3.1404,293.88,54,100,2.73,FR,1690155415
248,talnakh,69.4865,88.3972,284.38,77,22,0.44,RU,1690155415
249,sosnovo-ozerskoye,52.5249,111.5418,289.85,67,34,3.65,RU,1690155415
250,hermanus,-34.4187,19.2345,282.56,81,86,1.21,ZA,1690155415
251,mount isa,-20.7333,139.5,286.02,41,0,8.23,AU,1690155415
252,horodok,49.1637,26.5839,286.54,67,39,3.56,UA,1690155415
253,fort mcmurray,56.7268,-111.381,298.92,53,0,3.6,CA,1690155415
254,san patricio,28.017,-97.5169,309.2,44,45,3.47,US,1690155184
255,cambria,35.5641,-121.0808,307.17,88,86,1.34,US,1690155134
256,scarborough,54.2797,-0.4044,286.29,93,100,1.79,GB,1690155348
257,parabel',58.6978,81.4825,290.86,78,100,2.0,RU,1690155416
258,havre,49.5833,0.3333,291.04,100,100,4.12,FR,1690155416
259,maun,-19.9833,23.4167,288.13,31,0,2.57,BW,1690155416
260,ellsworth,44.5434,-68.4195,299.2,82,0,3.09,US,1690155357
261,margate,51.3813,1.3862,289.21,88,54,3.13,GB,1690155360
262,keflavik,64.0049,-22.5624,285.1,93,75,1.54,IS,1690155416
263,paphos,34.7667,32.4167,300.03,34,0,1.03,CY,1690155416
264,novyy urgal,51.0736,132.5642,290.4,98,100,1.68,RU,1690155416
265,ambon,-3.6954,128.1814,299.95,100,75,0.51,ID,1690155416
266,nizhneangarsk,55.7833,109.55,295.88,44,50,1.12,RU,1690155416
267,whitefish,48.4111,-114.3376,307.71,19,0,4.63,US,1690155417
268,port douglas,-16.4833,145.4667,295.64,67,43,1.81,AU,1690155417
269,namibe,-15.1961,12.1522,291.31,79,25,7.47,AO,1690155417
270,cruzeiro do sul,-29.5128,-51.9853,290.85,94,45,3.64,BR,1690155417
271,saudarkrokur,65.7461,-19.6394,283.07,97,100,0.74,IS,1690155128
272,kamenka,51.3223,42.7678,287.61,91,20,1.79,RU,1690155417
273,ancud,-41.8697,-73.8203,277.33,84,100,3.92,CL,1690155154
274,vredendal,-31.6683,18.5012,281.4,82,3,2.21,ZA,1690155417
275,whitehorse,60.7161,-135.0538,295.98,60,100,4.12,CA,1690155417
276,sao vicente,-23.9631,-46.3919,299.25,26,1,1.86,BR,1690155156
277,mahebourg,-20.4081,57.7,295.31,88,75,5.14,MU,1690155417
278,kotlas,61.2611,46.6556,284.15,98,43,2.37,RU,1690155418
279,galich,58.3797,42.3475,286.29,100,100,2.35,RU,1690155418
280,lagoa,39.05,-27.9833,295.07,82,13,4.3,PT,1690155418
281,douala,4.0483,9.7043,297.33,94,99,1.65,CM,1690155418
282,cidreira,-30.1811,-50.2056,289.43,93,50,2.45,BR,1690155138
283,agat village,13.3886,144.6585,303.35,83,0,4.12,GU,1690155418
284,dauphin,51.1494,-100.0502,296.23,64,0,3.09,CA,1690155418
285,chieti,42.3609,14.138,302.45,84,0,1.03,IT,1690155418
286,vadso,70.0744,29.7487,281.64,93,100,6.69,NO,1690155418
287,ciudad bolivar,8.1222,-63.5497,303.32,54,58,2.86,VE,1690155418
288,glace bay,46.1969,-59.957,295.87,97,75,2.68,CA,1690155418
289,moyynkum,44.2914,72.9469,300.73,20,0,3.43,KZ,1690155418
290,baiyin,36.5583,104.2081,293.52,65,44,2.23,CN,1690155419
291,inari,68.906,27.0288,282.26,81,72,3.96,FI,1690155419
292,buka,40.8108,69.1986,296.73,31,1,3.59,UZ,1690155419
293,palikir - national government center,6.9248,158.1611,301.62,79,100,2.06,FM,1690155419
294,urzhar,47.093,81.6294,296.14,30,4,4.09,KZ,1690155419
295,bubaque,11.2833,-15.8333,300.24,82,93,5.99,GW,1690155419
296,colonia,50.9333,6.95,292.57,85,0,2.06,DE,1690155406
297,khovd,48.0056,91.6419,291.7,32,95,0.76,MN,1690155419
298,katsuura,35.1333,140.3,301.59,59,47,2.22,JP,1690155419
299,sorong,-0.8833,131.25,298.78,85,96,7.2,ID,1690155419
300,tymovskoye,50.8456,142.655,298.67,60,100,1.41,RU,1690155419
301,fortuna,40.5982,-124.1573,296.44,68,20,7.72,US,1690155420
302,klyuchi,52.2667,79.1667,291.87,70,74,1.0,RU,1690155420
303,oriximina,-1.7656,-55.8661,301.47,51,56,1.67,BR,1690155420
304,puerto baquerizo moreno,-0.9,-89.6,297.75,81,91,5.32,EC,1690155144
305,liwonde,-15.0506,35.2035,289.62,73,1,0.51,MW,1690155420
306,tocache,-8.1842,-76.5125,298.72,71,39,1.14,PE,1690155420
307,swabi,34.1199,72.4699,301.97,65,21,2.46,PK,1690155420
308,lansdowne,39.9382,-75.2719,303.0,50,40,3.6,US,1690155420
309,chonchi,-42.6128,-73.8092,277.66,90,100,0.84,CL,1690155150
310,indre arna,60.4247,5.4764,288.12,1,22,1.15,NO,1690155420
311,juneau,58.3019,-134.4197,286.71,97,100,7.2,US,1690155170
312,kasama,-10.2129,31.1808,285.17,84,0,1.53,ZM,1690155420
313,amalapuram,16.5833,82.0167,298.32,90,100,4.47,IN,1690155421
314,floro,61.5996,5.0328,288.19,88,20,1.54,NO,1690155421
315,eyl,7.9803,49.8164,299.02,65,72,10.95,SO,1690155252
316,mazamari,-11.3258,-74.5308,296.25,66,8,2.19,PE,1690155421
317,murovani kurylivtsi,48.7235,27.5189,289.32,66,8,1.7,UA,1690155421
318,veraval,20.9,70.3667,300.2,88,97,7.42,IN,1690155421
319,kribi,2.95,9.9167,298.05,88,100,4.59,CM,1690155421
320,yamada,39.4667,141.95,300.35,66,99,1.73,JP,1690155421
321,mocoreta,-30.6189,-57.9634,288.5,53,56,5.87,AR,1690155421
322,ust'-ilimsk,58.0006,102.6619,293.36,68,33,0.49,RU,1690155421
323,abadan,30.3392,48.3043,305.12,17,0,2.06,IR,1690155422
324,tsiombe,-25.3,45.4833,290.36,93,0,2.02,MG,1690155422
325,shiprock,36.7855,-108.687,312.34,10,20,5.78,US,1690155422
326,taghazout,30.5426,-9.7112,294.58,83,2,1.68,MA,1690155422
327,korem,12.5058,39.5228,287.36,79,79,5.0,ET,1690155422
328,zouerate,22.7187,-12.4521,304.4,25,0,6.12,MR,1690155422
329,halstead,51.328,0.1327,289.0,74,31,2.85,GB,1690155422
330,la isla,18.6,-96.15,302.15,73,93,2.52,MX,1690155422
331,tamanrasset,22.785,5.5228,305.1,9,0,2.57,DZ,1690155422
332,guayaramerin,-10.8368,-65.3614,298.92,44,0,1.01,BO,1690155423
333,zaza del medio,21.9961,-79.3669,299.8,79,31,3.92,CU,1690155423
334,newtown,-33.8984,151.1775,288.16,89,75,3.6,AU,1690155423
335,karratha,-20.7377,116.8463,289.78,35,1,9.64,AU,1690155145
336,burang,30.25,81.1667,282.69,82,87,1.09,CN,1690155182
337,prado,-17.3411,-39.2208,295.04,88,44,4.25,BR,1690155423
338,alamo,20.9167,-97.6833,303.95,55,95,4.14,MX,1690155198
339,zinjibar,13.1287,45.3807,304.42,53,100,3.6,YE,1690155423
340,itoman,26.1247,127.6694,304.16,76,20,6.17,JP,1690155183
341,midvagur,62.0511,-7.1939,280.61,87,100,6.17,FO,1690155423
342,piton saint-leu,-21.2196,55.3151,293.19,68,0,2.57,RE,1690155424
343,rosarito,32.3333,-117.0333,301.06,71,94,2.53,MX,1690155424
344,westport,41.1415,-73.3579,301.4,61,0,3.09,US,1690155164
345,bandarbeyla,9.4942,50.8122,299.55,61,100,12.12,SO,1690155424
346,mejit,10.2753,170.8646,301.53,79,15,8.75,MH,1690155424
347,tofol,5.3248,163.0078,299.03,94,100,1.54,FM,1690155419
348,alamogordo,32.8995,-105.9603,308.68,28,20,2.06,US,1690155163
349,fale old settlement,-9.3852,-171.2468,301.6,77,19,6.68,TK,1690155243
350,aripuana,-9.1667,-60.6333,296.96,40,10,0.65,BR,1690155424
351,island harbour,50.724,-1.2758,290.33,90,23,0.89,GB,1690155424
352,leava,-14.3,-178.1667,299.8,74,37,7.21,WF,1690155424
353,long beach,33.767,-118.1892,304.17,78,75,4.63,US,1690155266
354,iskateley,67.6803,53.1512,287.63,97,100,2.75,RU,1690155425
355,cill airne,52.05,-9.5167,285.71,97,86,1.77,IE,1690155425
356,eforie sud,44.0229,28.6494,290.82,67,0,2.31,RO,1690155425
357,kamaishi,39.2667,141.8833,304.65,51,96,0.29,JP,1690155425
358,hilvan,37.5869,38.9551,302.64,28,0,4.63,TR,1690155425
359,hangha,7.9411,-11.14,295.41,99,98,0.68,SL,1690155425
360,la grande,45.3246,-118.0877,308.7,25,74,4.56,US,1690155142
361,codrington,-38.2667,141.9667,285.66,82,100,3.45,AU,1690155198
362,shubarshi,48.5872,57.1869,294.78,42,7,3.62,KZ,1690155425
363,nuuk,64.1835,-51.7216,284.49,82,18,4.63,GL,1690155143
364,flin flon,54.7682,-101.865,296.06,40,75,2.06,CA,1690155426
365,port macquarie,-31.4333,152.9167,288.65,66,86,4.52,AU,1690155426
366,karatas,36.582,35.3701,300.51,90,0,0.25,TR,1690155426
367,alice springs,-23.7,133.8833,278.9,70,100,4.63,AU,1690155426
368,aban,56.67,96.06,290.17,87,52,2.05,RU,1690155426
369,primero de mayo,-32.2552,-58.4228,287.9,46,98,5.54,AR,1690155426
370,saint-georges,12.0564,-61.7485,299.97,89,20,4.63,GD,1690155426
371,cusseta,32.3054,-84.7727,302.96,78,49,3.19,US,1690155426
372,livani,56.3543,26.1758,284.66,99,100,1.65,LV,1690155426
373,tarawa,1.419,172.984,304.2,70,40,3.09,KI,1690155426
374,mudgee,-32.5943,149.5871,284.05,62,5,3.82,AU,1690155427
375,pisco,-13.7,-76.2167,294.18,68,100,6.17,PE,1690155427
376,gizo,-8.103,156.8419,300.19,81,98,6.26,SB,1690155427
377,petropavlovsk-kamchatsky,53.0452,158.6483,294.48,56,20,6.0,RU,1690155427
378,usinsk,65.9939,57.5281,287.82,77,100,4.01,RU,1690155427
379,kapuskasing,49.4169,-82.4331,293.2,77,100,1.54,CA,1690155427
380,magadan,59.5667,150.8,291.78,68,73,1.01,RU,1690155427
381,pathein,16.7833,94.7333,298.94,92,25,1.66,MM,1690155427
382,minas de marcona,-15.2119,-75.1103,288.42,77,0,2.51,PE,1690155427
383,kourou,5.1552,-52.6478,298.18,88,7,2.74,GF,1690155428
384,kavieng,-2.5744,150.7967,301.72,76,58,6.7,PG,1690155428
385,kyren,51.6828,102.1408,289.59,89,92,0.86,RU,1690155428
386,olyokminsk,60.3736,120.4264,299.96,48,0,1.05,RU,1690155266
387,plastun,44.7561,136.2939,293.33,99,100,0.4,RU,1690155428
388,nadym,65.5333,72.5167,291.0,77,7,2.15,RU,1690155428
389,coron,11.9986,120.2043,299.53,88,100,5.6,PH,1690155428
390,sokolovyy,51.5686,45.8331,290.13,98,92,1.03,RU,1690155428
391,tateyama,34.9833,139.8667,299.28,73,34,1.99,JP,1690155268
392,amravati,20.9333,77.75,297.5,90,95,5.15,IN,1690155429
393,happy valley-goose bay,53.3168,-60.3315,295.32,73,75,5.66,CA,1690155429
394,luang namtha,20.9497,101.4011,297.85,85,51,0.23,LA,1690155429
395,baruun-urt,46.6806,113.2792,293.41,47,72,1.12,MN,1690155429
396,san ignacio,17.1561,-89.0714,304.23,66,40,0.0,BZ,1690155265
397,aitape,-3.1374,142.3475,298.8,89,100,2.74,PG,1690155429
398,ormara,25.2088,64.6357,302.03,75,100,2.02,PK,1690155429
399,jawf al maqbabah,13.8378,45.8349,301.55,58,97,2.04,YE,1690155429
400,antonio enes,-16.2325,39.9086,293.4,79,1,2.7,MZ,1690155429
401,quellon,-43.1167,-73.6167,276.29,93,100,0.0,CL,1690155133
402,hasaki,35.7333,140.8333,301.09,71,74,3.09,JP,1690155143
403,dunbar,38.3606,-81.7374,300.25,63,57,0.82,US,1690155400
404,howard springs,-12.497,131.047,290.83,36,45,9.64,AU,1690155430
405,st. john's,47.5649,-52.7093,295.81,90,75,4.63,CA,1690155240
406,bodaybo,57.8506,114.1933,296.65,61,7,0.49,RU,1690155430
407,tejen,37.3834,60.5054,301.45,22,0,3.2,TM,1690155430
408,nguigmi,14.2495,13.1092,301.15,60,99,4.26,NE,1690155430
409,pacasmayo,-7.4006,-79.5714,294.34,81,16,6.58,PE,1690155430
410,penhalonga,-18.8911,32.6978,282.83,77,0,0.76,ZW,1690155430
411,recreo,-29.2818,-65.061,289.53,26,98,5.22,AR,1690155197
412,novaya ladoga,60.1025,32.3019,287.44,85,12,6.78,RU,1690155430
413,salekhard,66.53,66.6019,288.41,89,55,2.83,RU,1690155431
414,dudinka,69.4058,86.1778,284.61,67,55,4.48,RU,1690155431
415,mahavelona,-17.6848,49.5087,292.14,93,39,3.55,MG,1690155431
416,panaba,21.2833,-88.2667,301.56,82,6,5.18,MX,1690155431
417,luderitz,-26.6481,15.1594,287.29,53,100,6.89,NA,1690155431
418,oamaru,-45.0784,170.9801,282.8,97,99,1.17,NZ,1690155431
419,qarqaraly,49.4058,75.4742,291.88,35,70,2.51,KZ,1690155431
420,newnham,-41.3833,147.1333,283.88,93,100,5.66,AU,1690155431
421,richards bay,-28.783,32.0377,291.45,88,40,4.28,ZA,1690155431
422,kapa'a,22.0752,-159.319,303.33,79,75,6.17,US,1690155431
423,damghan,36.1683,54.348,299.72,29,20,0.62,IR,1690155432
424,narvik,68.4384,17.4272,286.93,88,96,1.02,NO,1690155298
425,patnanungan,14.7833,122.1833,300.62,82,100,3.06,PH,1690155432
426,ibimirim,-8.5406,-37.6903,292.89,86,9,6.12,BR,1690155432
427,tralee,52.2704,-9.7026,287.84,85,59,6.37,IE,1690155432
428,nainwa,25.7667,75.85,302.8,70,62,2.47,IN,1690155432
429,morondava,-20.2833,44.2833,293.03,73,0,2.38,MG,1690155432
430,bayt al faqih,14.5164,43.3245,308.13,34,90,3.27,YE,1690155433
431,pangkalanbuun,-2.6833,111.6167,298.29,86,18,1.29,ID,1690155433
432,san pedro,14.35,121.0167,299.72,92,75,2.57,PH,1690155433
433,saint-joseph,-21.3667,55.6167,293.41,82,28,4.95,RE,1690155247
434,kerikeri,-35.2268,173.9474,287.54,87,2,1.34,NZ,1690155407
435,rio preto da eva,-2.6994,-59.6997,301.01,50,57,1.06,BR,1690155433
436,sai buri,6.7013,101.6168,297.99,86,48,2.46,TH,1690155433
437,bestobe,52.4994,73.0975,289.86,79,84,4.97,KZ,1690155433
438,juan de ayolas,-27.4,-56.9,296.46,49,3,3.43,PY,1690155434
439,thunder bay,48.4001,-89.3168,298.14,53,75,3.09,CA,1690155181
440,itaunja,27.0833,80.9167,303.14,64,100,4.42,IN,1690155434
441,kampung tanjung karang,3.4242,101.1849,299.83,85,94,2.63,MY,1690155434
442,fisterra,42.9049,-9.2629,290.79,77,66,5.7,ES,1690155434
443,andergrove,-21.0833,149.1833,286.29,89,100,6.73,AU,1690155434
444,basoko,1.2391,23.616,296.36,85,56,1.75,CD,1690155434
445,saldanha,-33.0117,17.9442,279.18,70,0,5.91,ZA,1690155434
446,huarmey,-10.0681,-78.1522,292.98,81,0,5.58,PE,1690155434
447,mo i rana,66.3128,14.1428,286.66,92,100,0.51,NO,1690155435
448,micheweni,-4.9667,39.8333,297.7,84,40,7.36,TZ,1690155435
449,saint-pierre,-21.3393,55.4781,294.02,68,0,2.57,RE,1690155191
450,kemijarvi,66.7131,27.4306,280.97,98,73,2.77,FI,1690155435
451,bereznik,62.8551,42.7072,284.45,98,100,2.26,RU,1690155435
452,san borja,-14.8167,-66.85,299.47,50,30,0.43,BO,1690155435
453,ibiza,38.9088,1.433,301.6,88,40,2.06,ES,1690155235
454,shuya,56.8487,41.3883,285.21,98,76,2.82,RU,1690155435
455,rongelap,11.1635,166.8941,301.73,71,22,6.99,MH,1690155435
456,virginia,37.5481,-77.4467,302.14,67,75,4.12,US,1690155234
457,clewiston,26.7542,-80.9337,302.78,68,24,4.78,US,1690155435
458,tiruchchendur,8.4833,78.1167,300.37,72,100,4.48,IN,1690155436
459,whakatane,-37.9585,176.9854,286.97,79,23,1.79,NZ,1690155436
460,pacocha,-17.5833,-71.3333,289.08,86,18,0.24,PE,1690155436
461,khedbrahma,24.0333,73.05,299.43,93,94,1.61,IN,1690155436
462,oruro,-17.9833,-67.15,281.44,25,4,2.68,BO,1690155436
463,yuzhno-kurilsk,44.0306,145.8556,289.0,99,96,2.48,RU,1690155436
464,mugia,43.1041,-9.2179,290.88,80,68,4.59,ES,1690155195
465,kruisfontein,-34.0033,24.7314,283.09,80,40,6.25,ZA,1690155206
466,tippi,7.2,35.45,290.83,87,99,1.53,ET,1690155436
467,sarandi,-23.4436,-51.8739,295.9,60,0,4.63,BR,1690155437
468,santa cruz,-17.8,-63.1667,299.18,73,40,3.09,BO,1690155437
469,bima,-8.4667,118.7167,298.38,77,39,1.9,ID,1690155437
470,campos do jordao,-22.7394,-45.5914,286.46,68,0,1.18,BR,1690155437
471,montepuez,-13.1256,38.9997,289.93,84,36,1.95,MZ,1690155437
472,severo-yeniseyskiy,60.3725,93.0408,290.73,80,68,0.06,RU,1690155239
473,kirensk,57.7853,108.1119,295.12,62,55,0.24,RU,1690155437
474,cole harbour,44.6724,-63.4751,295.47,95,35,3.6,CA,1690155437
475,helong,42.5397,128.9972,299.59,59,18,2.18,CN,1690155437
476,smithers,54.7804,-127.1743,293.33,40,75,2.06,CA,1690155438
477,alofi,-19.0595,-169.9187,299.09,65,55,5.66,NU,1690155169
478,sinop,41.7711,34.8709,292.0,84,9,6.38,TR,1690155438
479,mumbai,19.0144,72.8479,299.14,100,100,5.14,IN,1690155385
480,kuqa,41.7278,82.9364,301.51,31,99,1.43,CN,1690155165
481,bac kan,22.1333,105.8333,299.5,93,93,0.69,VN,1690155438
482,bogorodskoye,56.55,37.8833,282.99,97,4,2.99,RU,1690155438
483,aldama,22.9167,-98.0667,306.2,53,51,5.82,MX,1690155438
484,sabang,5.8933,95.3214,301.12,73,100,9.34,ID,1690155438
485,korla,41.7597,86.1469,302.49,34,100,1.95,CN,1690155438
486,chipinge,-20.1883,32.6236,285.49,62,0,1.35,ZW,1690155438
487,torghay,49.6339,63.4981,294.52,49,64,4.02,KZ,1690155439
488,tuguegarao,17.6131,121.7269,300.05,82,74,2.6,PH,1690155439
489,aliveri,38.4167,24.0333,306.16,39,1,2.41,GR,1690155439
490,daru,-9.0763,143.2092,299.15,65,97,3.42,PG,1690155185
491,shingu,33.7333,135.9833,303.55,58,3,1.44,JP,1690155439
492,rozdilna,46.8433,30.0792,290.49,49,0,1.14,UA,1690155439
493,finley,46.154,-119.0339,310.52,22,0,3.09,US,1690155439
494,hadibu,12.65,54.0333,297.92,81,100,12.66,YE,1690155439
495,kampene,-3.6,26.6667,296.58,48,51,1.0,CD,1690155439
496,harper,4.375,-7.7169,296.9,90,99,2.11,LR,1690155439
497,cukai,4.25,103.4167,299.12,91,98,2.39,MY,1690155440
498,phan rang-thap cham,11.5667,108.9833,299.57,82,100,1.54,VN,1690155440
499,puerto aysen,-45.4,-72.7,272.84,97,100,1.64,CL,1690155440
500,lubuklinggau,-3.3,102.8667,295.7,100,80,0.32,ID,1690155440
501,gladstone,-23.85,151.25,288.11,72,100,3.6,AU,1690155440
502,susuman,62.7833,148.1667,287.27,59,68,3.74,RU,1690155440
503,nyuzen,36.9333,137.5,305.11,67,99,1.74,JP,1690155440
504,murghob,38.1702,73.9667,284.78,63,65,1.32,TJ,1690155440
505,arkhangel'sk,64.5401,40.5433,283.85,94,98,2.1,RU,1690155144
506,qalat,32.1058,66.9083,298.43,46,76,0.88,AF,1690155441
507,amahai,-3.3333,128.9167,302.09,81,76,5.89,ID,1690155441
508,dakoro,14.5106,6.765,298.31,78,95,3.88,NE,1690155441
509,dourbali,11.8091,15.8632,299.99,70,68,3.45,TD,1690155441
510,andrushivka,50.0229,29.0202,287.64,71,13,3.16,UA,1690155441
511,hinesville,31.8469,-81.5959,298.22,95,0,3.09,US,1690155394
512,yarmouth,41.7057,-70.2286,298.34,75,0,3.6,US,1690155441
513,antsohihy,-14.8796,47.9875,291.95,76,3,3.39,MG,1690155441
514,puerto deseado,-47.7503,-65.8938,274.48,73,82,4.61,AR,1690155194
515,pangoa,-12.1167,-73.0,295.04,72,1,1.01,PE,1690155441
516,palmer,42.1584,-72.3287,300.9,54,20,1.54,US,1690155442
517,sungai penuh,-2.0833,101.3833,290.68,94,100,0.66,ID,1690155442
518,sandnessjoen,66.0217,12.6316,285.11,96,100,2.44,NO,1690155209
519,caleta de carquin,-11.0925,-77.6267,293.0,80,3,4.8,PE,1690155250
520,tazacorte,28.629,-17.9293,295.69,82,75,7.72,ES,1690155236
521,sao felix do xingu,-6.6447,-51.995,296.87,43,53,1.49,BR,1690155442
522,slave lake,55.2834,-114.769,296.14,53,0,1.54,CA,1690155442
523,saint-philippe,-21.3585,55.7679,293.92,85,42,4.84,RE,1690155442
524,gaspe,48.8334,-64.4819,294.1,88,20,6.17,CA,1690155442
525,atlanta,33.749,-84.388,304.2,53,0,3.09,US,1690155394
526,butembo,0.15,29.2833,289.23,55,43,1.25,CD,1690155442
527,jiuquan,39.7432,98.5174,300.15,17,43,2.68,CN,1690155442
528,kone,-21.0595,164.8658,296.31,44,9,1.56,NC,1690155443
529,conceicao da barra,-18.5933,-39.7322,293.9,91,37,2.34,BR,1690155443
530,aksu,41.1231,80.2644,300.12,36,98,2.44,CN,1690155443
531,sittwe,20.15,92.9,300.4,86,74,3.93,MM,1690155443
532,cannonvale,-20.2833,148.7,288.81,94,100,2.35,AU,1690155443
533,borogontsy,62.6683,131.1683,297.87,53,84,1.06,RU,1690155443
534,portel,-1.9356,-50.8211,299.49,69,45,1.36,BR,1690155443
535,manggar,-2.8833,108.2667,300.54,76,19,4.49,ID,1690155443
536,crane,31.3974,-102.3501,310.91,15,44,3.84,US,1690155188
537,san pedro de macoris,18.4616,-69.2972,303.49,89,99,3.02,DO,1690155443
538,nova sintra,14.8667,-24.7167,296.21,78,100,6.01,CV,1690155444
539,nouadhibou,20.931,-17.0347,297.14,69,65,7.72,MR,1690155444
540,newman,37.3138,-121.0208,316.34,8,92,2.08,US,1690155444
541,castillos,-34.1667,-53.8333,283.35,85,87,3.71,UY,1690155444
542,kenai,60.5544,-151.2583,291.2,84,0,5.66,US,1690155444
543,nakhon phanom,17.3333,104.4167,298.04,88,94,1.59,TH,1690155444
544,luwingu,-10.2621,29.9271,285.06,73,0,2.15,ZM,1690155254
545,remetea,46.7833,25.45,286.33,72,3,0.67,RO,1690155444
546,ico,-6.4011,-38.8622,302.83,33,88,5.27,BR,1690155444
547,port saint john's,-31.6229,29.5448,289.25,72,100,6.87,ZA,1690155444
548,porto novo,6.4965,2.6036,296.54,94,100,2.9,BJ,1690155445
549,sydney,-33.8679,151.2073,287.36,90,75,3.6,AU,1690155300
550,rikaze,29.25,88.8833,284.16,82,100,1.53,CN,1690155162
551,kuluncak,38.8828,37.6728,290.27,59,0,4.16,TR,1690155445
552,xalisco,21.4531,-104.8993,300.62,74,40,6.17,MX,1690155445
553,koryazhma,61.3143,47.1691,284.24,97,40,2.24,RU,1690155445
554,mata-utu,-13.2816,-176.1745,300.29,72,51,7.93,WF,1690155445
555,warrnambool,-38.3833,142.4833,285.78,81,100,2.75,AU,1690155445
556,sovetskiy,61.3614,63.5842,288.84,67,100,1.31,RU,1690155445
557,akureyri,65.6835,-18.0878,283.11,93,100,0.0,IS,1690155207
558,suva,-18.1416,178.4415,298.86,69,75,1.54,FJ,1690155446
559,carnarvon,-24.8667,113.6333,288.14,35,0,7.45,AU,1690155191
560,usogorsk,63.4106,48.6872,286.33,98,80,2.82,RU,1690155446
561,mandalgovi,45.7625,106.2708,290.23,68,24,1.85,MN,1690155446
562,manistee,44.2445,-86.3242,296.51,75,0,4.12,US,1690155446
563,qamdo,31.1667,97.2333,279.6,87,100,0.54,CN,1690155446
564,sur,22.5667,59.5289,299.76,82,100,2.97,OM,1690155446
565,massakory,12.996,15.7293,300.39,69,71,2.96,TD,1690155446
566,odesskoye,54.2111,72.9651,287.84,94,23,3.42,RU,1690155446
567,lovisa,60.4566,26.2251,286.39,93,12,3.46,FI,1690155446
568,manikpur,25.0667,81.1167,302.83,66,97,3.17,IN,1690155447
569,dzhangala,49.2167,50.3333,297.05,50,95,2.93,KZ,1690155447
570,siwa oasis,29.2041,25.5195,303.93,37,0,6.05,EG,1690155447
571,arquitecto tomas romero pereira,-26.4833,-55.25,292.3,67,9,2.07,PY,1690155447
572,kupang,-10.1667,123.5833,297.58,70,99,8.35,ID,1690155447
573,vyritsa,59.4078,30.3481,285.88,92,69,3.32,RU,1690155447
574,kristinestad,62.2743,21.376,284.32,81,96,2.78,FI,1690155447
575,rio brilhante,-21.8019,-54.5464,295.5,49,18,2.01,BR,1690155447
576,birjand,32.8663,59.2211,292.41,24,0,0.0,IR,1690155448
577,tostado,-29.232,-61.7692,289.19,46,100,6.32,AR,1690155448
578,dongsheng,39.8161,109.9776,298.95,28,3,8.47,CN,1690155448
579,lompoc,34.6391,-120.4579,297.56,79,100,3.6,US,1690155448
580,nogliki,51.8333,143.1667,294.43,76,97,4.59,RU,1690155448
581,geraldton,-28.7667,114.6,282.38,53,0,8.75,AU,1690155448
582,bulolo,-7.2,146.65,299.37,70,82,0.82,PG,1690155448
583,prince rupert,54.3161,-130.3201,289.2,80,100,3.09,CA,1690155425
584,pemba,-12.974,40.5178,294.81,78,1,5.32,MZ,1690155448
585,kapit,2.0167,112.9333,297.8,92,99,0.04,MY,1690155448
586,tonj,7.2737,28.6822,297.1,67,37,1.36,SS,1690155448
